stop_id,stop_code,stop_name,stop_desc,stop_lat,stop_lon,zone_id,stop_url,location_type,parent_station,stop_timezone,wheelchair_boarding,level_id,platform_code
"MOBIITI:StopPlace:49408",,"Médiathèque","",43.320805,-0.391855,"",,1,,,0,,
"MOBIITI:StopPlace:49529",,"Lot. de Ruchelle (2)",,43.245773,-0.290226,"",,1,,,0,,
"MOBIITI:StopPlace:49525",,"Buisson",,43.291927,-0.357830,"",,1,,,0,,
"MOBIITI:StopPlace:49646",,"Somport Ski de fond (2)",,42.796291,-0.531767,"",,1,,,0,,
"MOBIITI:StopPlace:49647",,"Douane/Bourg (2)",,42.871250,-0.554262,"",,1,,,0,,
"MOBIITI:StopPlace:62988",,"ST PALAIS - Hôpital",,43.325920,-1.025634,"",,1,,,0,,
"MOBIITI:StopPlace:49528",,"Cap vath (2)",,43.240501,-0.286618,"",,1,,,0,,
"MOBIITI:StopPlace:49649",,"Suberlaché (2)",,42.985809,-0.604492,"",,1,,,0,,
"MOBIITI:StopPlace:49644",,"Forges D'Abel (2)","",42.822342,-0.559127,"",,1,,,0,,
"MOBIITI:StopPlace:49524",,"Lacoste",,43.292686,-0.362789,"",,1,,,0,,
"MOBIITI:StopPlace:49645",,"Gare/Camping (2)","",42.881752,-0.559814,"",,1,,,0,,
"MOBIITI:StopPlace:49640",,"Somport Douane (2)","",42.795815,-0.525935,"",,1,,,0,,
"MOBIITI:StopPlace:49641",,"Parking (2)",,43.000526,-0.601087,"",,1,,,0,,
"MOBIITI:StopPlace:49080",,"LABASTIDE CEZ. - Labast Céz RD817 (2)",,43.378654,-0.536870,"",,1,,,0,,
"MOBIITI:StopPlace:49081",,"Université (2)",,43.311375,-0.364827,"",,1,,,0,,
"MOBIITI:StopPlace:49082",,"Pau euralis (2)",,43.334969,-0.456472,"",,1,,,0,,
"MOBIITI:StopPlace:49083",,"Gare SNCF","",43.393261,-0.569662,"",,1,,,2,,
"MOBIITI:StopPlace:49536",,"Quartier Justice",,43.181324,-0.252729,"",,1,,,0,,
"MOBIITI:StopPlace:49657",,"Bourg d'Asasp/poste",,43.122128,-0.613595,"",,1,,,0,,
"MOBIITI:StopPlace:49659",,"Eglise/Ecole",,42.912308,-0.570777,"",,1,,,0,,
"MOBIITI:StopPlace:49539",,"Mairie","",43.142185,-0.257310,"",,1,,,2,,
"MOBIITI:StopPlace:49532",,"Lot. les Ht. du Gave (2)",,43.198456,-0.254853,"",,1,,,0,,
"MOBIITI:StopPlace:49653",,"Pont (2)",,43.072231,-0.606599,"",,1,,,0,,
"MOBIITI:StopPlace:49412",,"Santos Dumont","",43.319729,-0.423819,"",,1,,,0,,
"MOBIITI:StopPlace:49533",,"Bert (2)","",43.149353,-0.255710,"",,1,,,0,,
"MOBIITI:StopPlace:49654",,"Leader Price (2)",,43.181030,-0.607489,"",,1,,,0,,
"MOBIITI:StopPlace:49534",,"Cami Beilh",,43.194321,-0.253289,"",,1,,,0,,
"MOBIITI:StopPlace:49655",,"Pont de Lescun",,42.946983,-0.611485,"",,1,,,0,,
"MOBIITI:StopPlace:49535",,"Gare SNCF","",43.182079,-0.242235,"",,1,,,2,,
"MOBIITI:StopPlace:49656",,"fronton d'Eygun",,42.936188,-0.589534,"",,1,,,0,,
"MOBIITI:StopPlace:49650",,"Pont (2)",,43.034328,-0.605957,"",,1,,,0,,
"MOBIITI:StopPlace:49530",,"Cami de Nay (2)",,43.216942,-0.264293,"",,1,,,0,,
"MOBIITI:StopPlace:49651",,"Gare","",42.995712,-0.603314,"",,1,,,2,,
"MOBIITI:StopPlace:50076",,"PAU Hôpital F. Mitterrand",,43.326073,-0.347193,"",,1,,,0,,
"MOBIITI:StopPlace:49531",,"Cap sus (2)","",43.231274,-0.276936,"",,1,,,0,,
"MOBIITI:StopPlace:49652",,"Salle Polyvalente",,43.173141,-0.604213,"",,1,,,0,,
"MOBIITI:StopPlace:60580",,"Poste (2)","",44.044949,0.208594,"",,1,,,0,,
"MOBIITI:StopPlace:60581",,"GUEYZE -Mairie (2)",,44.041809,0.132915,"",,1,,,0,,
"MOBIITI:StopPlace:60582",,"Relais Gascogne (2)",,44.054638,0.260863,"",,1,,,0,,
"MOBIITI:StopPlace:60583",,"Ste Foy (2)","",44.207050,0.615272,"",,1,,,0,,
"MOBIITI:StopPlace:49789",,"Fronton",,43.364552,-0.582568,"",,1,,,0,,
"MOBIITI:StopPlace:60588",,"Mairie (2)",,43.931801,-0.238823,"",,1,,,0,,
"MOBIITI:StopPlace:49547",,"Amphithéâtre",,43.181080,-0.260642,"",,1,,,2,,
"MOBIITI:StopPlace:49548",,"Mairie (2)","",43.188988,-0.250046,"",,1,,,0,,
"MOBIITI:StopPlace:69159",,"Place de l'église","",43.103722,-0.117679,"",,1,,,2,,
"MOBIITI:StopPlace:49785",,"Le Taillis (2)",,43.314564,-0.454800,"",,1,,,0,,
"MOBIITI:StopPlace:60584",,"Av. 21 Avril 1944 (2)","",43.986179,0.008456,"",,1,,,0,,
"MOBIITI:StopPlace:49543",,"Centre",,43.221535,-0.266615,"",,1,,,0,,
"MOBIITI:StopPlace:49302",,"Le Laou","",43.325924,-0.439970,"",,1,,,0,,
"MOBIITI:StopPlace:49786",,"Collège","",43.320988,-0.575777,"",,1,,,2,,
"MOBIITI:StopPlace:49544",,"Eglise",,43.235584,-0.281959,"",,1,,,0,,
"MOBIITI:StopPlace:49787",,"Mairie (2)","",43.334877,-0.506984,"",,1,,,0,,
"MOBIITI:StopPlace:60586",,"ST PE ST SIMON - D656/D144 (2)",,44.028599,0.106735,"",,1,,,0,,
"MOBIITI:StopPlace:49545",,"Vignau",,43.252533,-0.295615,"",,1,,,0,,
"MOBIITI:StopPlace:49788",,"Rte de Tarsacq (2)","",43.359241,-0.555413,"",,1,,,0,,
"MOBIITI:StopPlace:49660",,"OLORON - Gare SNCF Arrivée","",43.194126,-0.611867,"",,1,,,2,,
"MOBIITI:StopPlace:49782",,"Labat Camy (2)",,43.308327,-0.447538,"",,1,,,0,,
"MOBIITI:StopPlace:49540",,"Matachot","",43.281193,-0.333476,"",,1,,,0,,
"MOBIITI:StopPlace:49661",,"Bourg (2)",,43.050095,-0.601234,"",,1,,,0,,
"MOBIITI:StopPlace:49783",,"Centre Bourg (2)",,43.305016,-0.443503,"",,1,,,0,,
"MOBIITI:StopPlace:49541",,"Côte Saint Martin",,43.173508,-0.262848,"",,1,,,0,,
"MOBIITI:StopPlace:49662",,"Pont d'Esquit (2)",,42.962898,-0.610052,"",,1,,,0,,
"MOBIITI:StopPlace:49663",,"Eglise",,43.156311,-0.597023,"",,1,,,2,,
"MOBIITI:StopPlace:69153",,"Gare SNCF",,43.100445,-0.041991,"",,1,,,0,,
"MOBIITI:StopPlace:69154",,"Gare SNCF",,43.181900,-0.241650,"",,1,,,2,,
"MOBIITI:StopPlace:51872",,"PAU Porte des Pyrénées Quai C","",43.306519,-0.334959,"",,1,,,0,,
"MOBIITI:StopPlace:69028",,"Hôpital",,43.486485,-0.771724,"",,1,,,2,,
"MOBIITI:StopPlace:49554",,"Lycée (2)",,43.204876,-0.257376,"",,1,,,0,,
"MOBIITI:StopPlace:60574",,"Bourg (2)","",44.042637,0.142367,"",,1,,,0,,
"MOBIITI:StopPlace:49556",,"De La Fontaine","",43.284702,-0.387596,"",,1,,,0,,
"MOBIITI:StopPlace:60576",,"Arènes (2)",,43.894371,-0.307082,"",,1,,,0,,
"MOBIITI:StopPlace:49550",,"Bonaparte/Gare SNCF (2)","",43.292316,-0.368950,"",,1,,,0,,
"MOBIITI:StopPlace:49551",,"Pl. des Platanes (2)",,43.228168,-0.273500,"",,1,,,0,,
"MOBIITI:StopPlace:49794",,"Ancienne Gare","",43.357143,-0.535570,"",,1,,,0,,
"MOBIITI:StopPlace:49553",,"Mairie",,43.126846,-0.303824,"",,1,,,0,,
"MOBIITI:StopPlace:49790",,"Mairie","",43.358353,-0.564089,"",,1,,,0,,
"MOBIITI:StopPlace:49791",,"Centre Commercial (2)",,43.336327,-0.584807,"",,1,,,0,,
"MOBIITI:StopPlace:72547",,"Bidau (2)",,43.230949,-0.388498,,,1,,,2,,
"MOBIITI:StopPlace:72546",,"Bidau",,43.230858,-0.388498,,,1,,,2,,
"MOBIITI:StopPlace:49448",,"Lot Labarrere",,43.358589,-0.232173,"",,1,,,0,,
"MOBIITI:StopPlace:49209",,"Croix du Prince","",43.288036,-0.380216,"",,1,,,0,,
"MOBIITI:StopPlace:49446",,"MONASSUT - Cazadebat (2)",,43.409023,-0.204013,"",,1,,,0,,
"MOBIITI:StopPlace:49447",,"MONASSUT - Corps Franc Pommies",,43.417728,-0.192292,"",,1,,,0,,
"MOBIITI:StopPlace:49563",,"St Magne","",43.288494,-0.353171,"",,1,,,0,,
"MOBIITI:StopPlace:60591",,"D656 (2)","",44.096291,0.281983,"",,1,,,0,,
"MOBIITI:StopPlace:65002",,"UZEIN Aéroport Pau Pyrénées","",43.382130,-0.413266,"",,1,,,0,,
"MOBIITI:StopPlace:63067",,"MAULEON SOULE - Gare (2)","",43.225292,-0.888595,"",,1,,,0,,
"MOBIITI:StopPlace:49459",,"Bourg",,43.441856,-0.166705,"",,1,,,2,,
"MOBIITI:StopPlace:49456",,"SAINT JAMMES - Mairie (2)",,43.359192,-0.244239,"",,1,,,0,,
"MOBIITI:StopPlace:49457",,"MASPIE LALONQUERE JUILLACQ -Pouey",,43.445354,-0.141900,"",,1,,,0,,
"MOBIITI:StopPlace:49458",,"Place","",43.448879,-0.112363,"",,1,,,2,,
"MOBIITI:StopPlace:49451",,"ST LT BRETAGNE - Qu. Bretagne","",43.384953,-0.220362,"",,1,,,0,,
"MOBIITI:StopPlace:49452",,"ST LT BRETAGNE - Bidau",,43.395542,-0.210516,"",,1,,,0,,
"MOBIITI:StopPlace:49453",,"Ecole","",43.499969,-0.111575,"",,1,,,2,,
"MOBIITI:StopPlace:49454",,"Henri IV","",43.362057,-0.218729,"",,1,,,0,,
"MOBIITI:StopPlace:69164",,"ST PE DE BIG. - Place des Arcades","",43.103668,-0.160383,"",,1,,,2,,
"MOBIITI:StopPlace:69165",,"ST PE DE BIG. - Pl des Cloutiers",,43.103519,-0.161657,"",,1,,,2,,
"MOBIITI:StopPlace:72366",,"Collège Gabard",,43.284519,-0.384786,"",,1,,,2,,
"MOBIITI:StopPlace:72365",,"Gare SNCF (2)",,43.292465,-0.369683,"",,1,,,2,,
"MOBIITI:StopPlace:49905",,"BIZANOS Mairie","",43.289581,-0.355156,"",,1,,,0,,
"MOBIITI:StopPlace:65274",,"Gare SNCF",,43.099991,-0.041866,"",,1,,,2,,
"MOBIITI:StopPlace:49349",,"Université  Allée Condorcet (2)","",43.318539,-0.360221,"",,1,,,0,,
"MOBIITI:StopPlace:49466",,"Lapassade (2)",,43.227108,-0.142137,"",,1,,,0,,
"MOBIITI:StopPlace:49587",,"SAINT ABIT - Eglise (2)",,43.204811,-0.293851,"",,1,,,0,,
"MOBIITI:StopPlace:49467",,"Tourasse - Cité Administrative Quai B","",43.310471,-0.363223,"",,1,,,0,,
"MOBIITI:StopPlace:49588",,"LESTELLE B.- Eglise",,43.129810,-0.208658,"",,1,,,0,,
"MOBIITI:StopPlace:49468",,"Marcadau",,43.311321,-0.355932,"",,1,,,0,,
"MOBIITI:StopPlace:49589",,"Zone Commerciale",,43.174744,-0.235491,"",,1,,,0,,
"MOBIITI:StopPlace:49469",,"Eglise (2)",,43.242294,-0.165916,"",,1,,,0,,
"MOBIITI:StopPlace:49462",,"Mairie","",43.214329,-0.128909,"",,1,,,0,,
"MOBIITI:StopPlace:49583",,"Mairie",,43.261726,-0.329947,"",,1,,,2,,
"MOBIITI:StopPlace:49463",,"Stade Lemoine",,43.194359,-0.119475,"",,1,,,2,,
"MOBIITI:StopPlace:49584",,"Eglise (2)",,43.270565,-0.343287,"",,1,,,0,,
"MOBIITI:StopPlace:49464",,"Quartier Sarcen","",43.273796,-0.214245,"",,1,,,0,,
"MOBIITI:StopPlace:49585",,"Mairie (2)","",43.251068,-0.319643,"",,1,,,0,,
"MOBIITI:StopPlace:49465",,"Mairie",,43.266224,-0.188466,"",,1,,,0,,
"MOBIITI:StopPlace:49586",,"Mairie/Ecole (2)",,43.213936,-0.299824,"",,1,,,0,,
"MOBIITI:StopPlace:49460",,"Foyer Rural","",43.525459,-0.088863,"",,1,,,2,,
"MOBIITI:StopPlace:49461",,"Les glycines",,43.268238,-0.194622,"",,1,,,0,,
"MOBIITI:StopPlace:49582",,"Izarce","",43.153679,-0.226603,"",,1,,,0,,
"MOBIITI:StopPlace:49356",,"Cimetière","",43.592365,-0.273666,"",,1,,,0,,
"MOBIITI:StopPlace:49598",,"Lot St Roch",,43.187500,-0.262238,"",,1,,,0,,
"MOBIITI:StopPlace:49357",,"GRENADE SUR ADOUR - Centre place","",43.773289,-0.431196,"",,1,,,0,,
"MOBIITI:StopPlace:49599",,"Lot St Claude",,43.254559,-0.323998,"",,1,,,0,,
"MOBIITI:StopPlace:49358",,"Route nationale 134 (2)",,43.439922,-0.326160,"",,1,,,0,,
"MOBIITI:StopPlace:49359",,"AIRE SUR ADOUR - OfficeTourisme (2)","",43.702564,-0.261902,"",,1,,,0,,
"MOBIITI:StopPlace:49352",,"Galabert  RN134",,43.399517,-0.371378,"",,1,,,0,,
"MOBIITI:StopPlace:49594",,"Pont de Baliros",,43.229435,-0.307595,"",,1,,,0,,
"MOBIITI:StopPlace:49353",,"AIRE SUR ADOUR - Zone Commerciale","",43.721596,-0.264147,"",,1,,,0,,
"MOBIITI:StopPlace:49595",,"lezons 2000 (2)",,43.278278,-0.353589,"",,1,,,0,,
"MOBIITI:StopPlace:49354",,"Gare","",43.884785,-0.505771,"",,1,,,2,,
"MOBIITI:StopPlace:69062",,"Université - Allée Condorcet","",43.315247,-0.361712,"",,1,,,2,,
"MOBIITI:StopPlace:49596",,"Lotissement Petit (2)",,43.122421,-0.196473,"",,1,,,0,,
"MOBIITI:StopPlace:49355",,"Hôpital (2)",,43.838326,-0.471745,"",,1,,,0,,
"MOBIITI:StopPlace:49597",,"Eglise",,43.260239,-0.329332,"",,1,,,2,,
"MOBIITI:StopPlace:49590",,"Salle Polyvalente",,43.126919,-0.199342,"",,1,,,0,,
"MOBIITI:StopPlace:69065",,"Gare (2)",,43.884987,-0.505125,"",,1,,,2,,
"MOBIITI:StopPlace:49470",,"Mairie (2)","",43.245514,-0.168763,"",,1,,,0,,
"MOBIITI:StopPlace:49591",,"Suberlanne",,43.135456,-0.213947,"",,1,,,0,,
"MOBIITI:StopPlace:49350",,"Gare Parvis (2)","",43.291973,-0.369344,"",,1,,,0,,
"MOBIITI:StopPlace:49471",,"Place Huningue",,43.185734,-0.114677,"",,1,,,2,,
"MOBIITI:StopPlace:49592",,"LESTELLE BETHARAM - Collège","",43.122814,-0.206809,"",,1,,,2,,
"MOBIITI:StopPlace:49593",,"Village (2)",,43.195591,-0.273917,"",,1,,,0,,
"MOBIITI:StopPlace:49367",,"Madaune (2)",,43.459389,-0.322574,"",,1,,,0,,
"MOBIITI:StopPlace:49247",,"GAN Mairie","",43.229542,-0.386854,"",,1,,,0,,
"MOBIITI:StopPlace:49368",,"Carr. RN 134",,43.418686,-0.349099,"",,1,,,0,,
"MOBIITI:StopPlace:49363",,"AIRE SUR ADOUR - Av des Pyrénées","",43.690670,-0.273529,"",,1,,,0,,
"MOBIITI:StopPlace:49364",,"RN 134 (2)",,43.484169,-0.326464,"",,1,,,0,,
"MOBIITI:StopPlace:49365",,"CLARACQ - RN 134 (2)",,43.520214,-0.306872,"",,1,,,0,,
"MOBIITI:StopPlace:49366",,"Place Marcadieu",,43.559078,-0.274411,"",,1,,,2,,
"MOBIITI:StopPlace:49360",,"RN 134 (2)",,43.629292,-0.271783,"",,1,,,0,,
"MOBIITI:StopPlace:69098",,"Gare (2)","",44.208366,0.619559,"",,1,,,0,,
"MOBIITI:StopPlace:49361",,"Ecole (2)",,43.773651,-0.365578,"",,1,,,0,,
"MOBIITI:StopPlace:49362",,"CAZERES SUR ADOUR - Place",,43.761021,-0.317098,"",,1,,,0,,
"MOBIITI:StopPlace:49934",,"POEY DE LESCAR ZA D817","",43.346802,-0.477594,"",,1,,,0,,
"MOBIITI:StopPlace:64997",,"LESCAR Soleil","",43.319984,-0.433735,"",,1,,,0,,
"MOBIITI:StopPlace:49136",,"SALIES DE B - Place Bignot",,43.469048,-0.927667,"",,1,,,0,,
"MOBIITI:StopPlace:49257",,"Maison Familiale",,43.086315,-0.422574,"",,1,,,0,,
"MOBIITI:StopPlace:49137",,"SALIES DE B - Le Golf",,43.475151,-0.913364,"",,1,,,0,,
"MOBIITI:StopPlace:49258",,"Cave","",43.237545,-0.389814,"",,1,,,0,,
"MOBIITI:StopPlace:49379",,"Gare","",44.208275,0.619559,"",,1,,,2,,
"MOBIITI:StopPlace:49138",,"Centre Commercial (2)",,43.489376,-0.799289,"",,1,,,0,,
"MOBIITI:StopPlace:49139",,"Gare SNCF","",43.484463,-0.767559,"",,1,,,2,,
"MOBIITI:StopPlace:49132",,"SAUVETERRE - Place Royale",,43.400356,-0.938924,"",,1,,,0,,
"MOBIITI:StopPlace:49253",,"Place.Jardin Darralde","",42.973133,-0.392686,"",,1,,,2,,
"MOBIITI:StopPlace:49374",,"Gare","",43.885742,-0.309123,"",,1,,,0,,
"MOBIITI:StopPlace:49133",,"Mairie",,43.523369,-0.898071,"",,1,,,0,,
"MOBIITI:StopPlace:49254",,"Gourette Pkg faceNord",,42.959854,-0.333008,"",,1,,,2,,
"MOBIITI:StopPlace:49375",,"RD 11","",43.969261,-0.187940,"",,1,,,0,,
"MOBIITI:StopPlace:49135",,"La Virginie","",43.489502,-0.816999,"",,1,,,2,,
"MOBIITI:StopPlace:49256",,"Monplaisir (2)",,43.018768,-0.423124,"",,1,,,0,,
"MOBIITI:StopPlace:69085",,"SAINT AGNET - Eglise (2)",,43.605804,-0.272633,"",,1,,,0,,
"MOBIITI:StopPlace:49370",,"AIRE SUR ADOUR -Place de la Liber (2)","",43.704659,-0.259934,"",,1,,,0,,
"MOBIITI:StopPlace:49250",,"Gare SNCF","",43.292400,-0.370162,"",,1,,,0,,
"MOBIITI:StopPlace:49130",,"SAUVETERRE - Gare SNCF (2)",,43.390835,-0.943047,"",,1,,,0,,
"MOBIITI:StopPlace:49372",,"Ecole",,43.994633,-0.103009,"",,1,,,0,,
"MOBIITI:StopPlace:49373",,"Eglise","",43.835846,-0.301206,"",,1,,,0,,
"MOBIITI:StopPlace:73135",,"Gan Brel 1",,43.222095,-0.387923,,,1,,,2,,
"MOBIITI:StopPlace:73136",,"Gan Brel 2",,43.221905,-0.387735,,,1,,,2,,
"MOBIITI:StopPlace:49709",,"OLORON - Supervielle/T.Derême",,43.183514,-0.621540,"",,1,,,2,,
"MOBIITI:StopPlace:49706",,"Guirail","",43.122555,-0.726769,"",,1,,,0,,
"MOBIITI:StopPlace:49707",,"Ecole",,43.096333,-0.716905,"",,1,,,0,,
"MOBIITI:StopPlace:49708",,"OLORON - Gare SNCF Départ","",43.194126,-0.611867,"",,1,,,2,,
"MOBIITI:StopPlace:49147",,"Osserain (2)","",43.376831,-0.949266,"",,1,,,0,,
"MOBIITI:StopPlace:49268",,"Castor (2)",,43.102692,-0.419032,"",,1,,,0,,
"MOBIITI:StopPlace:49148",,"Casino (2)",,43.473087,-0.929548,"",,1,,,0,,
"MOBIITI:StopPlace:49269",,"Maison aux 5 sens (2)",,42.988155,-0.425811,"",,1,,,0,,
"MOBIITI:StopPlace:49143",,"Marcadieu (2)","",43.517452,-0.918057,"",,1,,,0,,
"MOBIITI:StopPlace:49264",,"Poste (2)",,43.103405,-0.427501,"",,1,,,0,,
"MOBIITI:StopPlace:49144",,"Gare SNCF","",43.525078,-0.910681,"",,1,,,2,,
"MOBIITI:StopPlace:49265",,"Merce","",43.218586,-0.383993,"",,1,,,0,,
"MOBIITI:StopPlace:49145",,"Eglise (2)","",43.326679,-1.035048,"",,1,,,0,,
"MOBIITI:StopPlace:49266",,"Bourg Belesten (2)",,43.031628,-0.422793,"",,1,,,0,,
"MOBIITI:StopPlace:49146",,"SAUVETERRE - Ec. St Joseph","",43.399597,-0.943764,"",,1,,,2,,
"MOBIITI:StopPlace:49267",,"Centre (2)",,43.112946,-0.411810,"",,1,,,0,,
"MOBIITI:StopPlace:49260",,"Centre (2)","",43.091404,-0.425929,"",,1,,,0,,
"MOBIITI:StopPlace:49140",,"SALIES DE B - Lasbordes",,43.444298,-0.928495,"",,1,,,0,,
"MOBIITI:StopPlace:49261",,"Poste (2)","",43.054955,-0.431379,"",,1,,,0,,
"MOBIITI:StopPlace:49141",,"Ecole (2)",,43.512821,-0.839532,"",,1,,,0,,
"MOBIITI:StopPlace:49262",,"Place de la Mairie (2)","",43.160091,-0.396518,"",,1,,,0,,
"MOBIITI:StopPlace:49263",,"Pont de Béon (2)","",43.037064,-0.423679,"",,1,,,0,,
"MOBIITI:StopPlace:51912",,"Gare (2)",,43.320587,-0.470723,"",,1,,,0,,
"MOBIITI:StopPlace:71968",,"Gare SNCF (2)","",43.393353,-0.569662,"",,1,,,0,,
"MOBIITI:StopPlace:49958",,"Rue Mathieu Lalanne","",43.297333,-0.364336,"",,1,,,0,,
"MOBIITI:StopPlace:49716",,"OLORON SAINTE MARIE - Hôpital (2)","",43.196831,-0.619007,"",,1,,,0,,
"MOBIITI:StopPlace:49717",,"Lot du pont du vert",,43.216743,-0.650180,"",,1,,,2,,
"MOBIITI:StopPlace:49719",,"Place mairie/Ecole",,43.240017,-0.690380,"",,1,,,0,,
"MOBIITI:StopPlace:49712",,"ANCE - Mairie",,43.145336,-0.692097,"",,1,,,0,,
"MOBIITI:StopPlace:49713",,"La Pierre St M. Station",,42.979721,-0.746157,"",,1,,,0,,
"MOBIITI:StopPlace:49714",,"Sereuilh",,43.132645,-0.705591,"",,1,,,0,,
"MOBIITI:StopPlace:49952",,"Clos du Béarn","",43.269600,-0.316872,"",,1,,,0,,
"MOBIITI:StopPlace:49710",,"La Pierre St M. le Braca","",42.984951,-0.742861,"",,1,,,0,,
"MOBIITI:StopPlace:49711",,"FEAS - Place du village",,43.155239,-0.687762,"",,1,,,0,,
"MOBIITI:StopPlace:49270",,"Pl. Verdun Camou",,43.300259,-0.376335,"",,1,,,0,,
"MOBIITI:StopPlace:69219",,"Eglise",,43.232521,-0.672540,"",,1,,,0,,
"MOBIITI:StopPlace:49606",,"Lot du Bedat (2)",,43.245220,-0.311894,"",,1,,,0,,
"MOBIITI:StopPlace:49727",,"HOPITAL ST B. - Bourg (2)",,43.251965,-0.770174,"",,1,,,0,,
"MOBIITI:StopPlace:49728",,"OLORON SAINTE MARIE -Salle Pallas (2)",,43.192661,-0.619499,"",,1,,,0,,
"MOBIITI:StopPlace:60522",,"Jasmin Gambetta (2)","",44.203594,0.611760,"",,1,,,0,,
"MOBIITI:StopPlace:49965",,"Clinique","",43.279602,-0.326429,"",,1,,,0,,
"MOBIITI:StopPlace:49602",,"Eglise (2)",,43.169216,-0.231597,"",,1,,,0,,
"MOBIITI:StopPlace:49723",,"GEUS D OLORON - Rond Pt de Geüs",,43.256035,-0.709213,"",,1,,,2,,
"MOBIITI:StopPlace:49603",,"Las Caires (2)","",43.263992,-0.333596,"",,1,,,0,,
"MOBIITI:StopPlace:49724",,"Portarrieu (2)",,43.258568,-0.718485,"",,1,,,0,,
"MOBIITI:StopPlace:49604",,"Cimetière (2)","",43.257957,-0.326908,"",,1,,,0,,
"MOBIITI:StopPlace:49725",,"MAULEON SOULE-Lyc/Col St François",,43.223671,-0.884144,"",,1,,,0,,
"MOBIITI:StopPlace:49605",,"Chemin du Moulin (2)",,43.264473,-0.334309,"",,1,,,0,,
"MOBIITI:StopPlace:49726",,"Rond point Lycée","",43.228043,-0.873205,"",,1,,,0,,
"MOBIITI:StopPlace:49962",,"Lot. Layus","",43.266708,-0.313642,"",,1,,,0,,
"MOBIITI:StopPlace:49720",,"SAINT GOIN - Village","",43.246891,-0.700851,"",,1,,,0,,
"MOBIITI:StopPlace:49600",,"Carrefour Plantier (2)",,43.200272,-0.285806,"",,1,,,0,,
"MOBIITI:StopPlace:49721",,"OLORON - Notre Dame (2)",,43.193451,-0.604048,"",,1,,,0,,
"MOBIITI:StopPlace:49964",,"Centre","",43.264149,-0.311071,"",,1,,,0,,
"MOBIITI:StopPlace:49601",,"Collège (2)",,43.158062,-0.231047,"",,1,,,0,,
"MOBIITI:StopPlace:49722",,"Ec. Publique/Ikastola (2)",,43.229080,-0.869543,"",,1,,,0,,
"MOBIITI:StopPlace:49960",,"Albert 1er","",43.283012,-0.342056,"",,1,,,0,,
"MOBIITI:StopPlace:49738",,"Pôle santé",,43.395618,-0.569501,"",,1,,,2,,
"MOBIITI:StopPlace:51916",,"Clos Bédat",,43.326698,-0.494920,"",,1,,,0,,
"MOBIITI:StopPlace:49739",,"Aran Gouz Lendres - Mont (2)",,43.431416,-0.657788,"",,1,,,0,,
"MOBIITI:StopPlace:51913",,"Larribot","",43.328629,-0.501222,"",,1,,,0,,
"MOBIITI:StopPlace:49734",,"Mairie",,43.396706,-0.572482,"",,1,,,2,,
"MOBIITI:StopPlace:49976",,"Cachalat","",43.328960,-0.286416,"",,1,,,0,,
"MOBIITI:StopPlace:49735",,"Aranc Gouz Lendres - Gouze (2)",,43.444031,-0.672346,"",,1,,,0,,
"MOBIITI:StopPlace:69201",,"Eglise Arros",,43.145184,-0.601527,"",,1,,,0,,
"MOBIITI:StopPlace:49736",,"Soarns","",43.480587,-0.748590,"",,1,,,2,,
"MOBIITI:StopPlace:49737",,"Mont Aran Gouz Lend- Arance Rd Pt (2)",,43.420029,-0.644787,"",,1,,,0,,
"MOBIITI:StopPlace:49730",,"La Poste/Ecole (2)",,43.458580,-0.685798,"",,1,,,0,,
"MOBIITI:StopPlace:49732",,"AUDEJOS - Lacq Mairie",,43.412792,-0.618332,"",,1,,,0,,
"MOBIITI:StopPlace:49733",,"AUDEJOS - Panacau (2)",,43.406162,-0.598132,"",,1,,,0,,
"MOBIITI:StopPlace:50038",,"Mairie de Billère","",43.301933,-0.396442,"",,1,,,0,,
"MOBIITI:StopPlace:58559",,"ROQUEFORT - Walibi","",44.186680,0.580613,"",,1,,,0,,
"MOBIITI:StopPlace:69239",,"Mairie de Jurançon","",43.286919,-0.389998,"",,1,,,0,,
"MOBIITI:StopPlace:49639",,"OLORON - Impôts LPA. St Joseph",,43.187119,-0.610028,"",,1,,,0,,
"MOBIITI:StopPlace:58691",,"Lamennais (2)","",44.206448,0.613155,"",,1,,,0,,
"MOBIITI:StopPlace:60533",,"Place de l'horloge (2)",,44.134956,0.339350,"",,1,,,0,,
"MOBIITI:StopPlace:49636",,"CANFRANC  ESPAGNE - Gare SNCF (2)","",42.751587,-0.515255,"",,1,,,0,,
"MOBIITI:StopPlace:49637",,"Gare (2)",,42.941257,-0.603561,"",,1,,,0,,
"MOBIITI:StopPlace:69225",,"Mairie/Ecole (2)",,43.468407,-0.713106,"",,1,,,0,,
"MOBIITI:StopPlace:49638",,"Foyer de Vie (2)",,42.978138,-0.606589,"",,1,,,0,,
"MOBIITI:StopPlace:49994",,"Piscine","",43.349056,-0.262580,"",,1,,,0,,
"MOBIITI:StopPlace:69227",,"LACQ -Pole d'Etude et de Recherches (2)",,43.417156,-0.637339,"",,1,,,2,,
"MOBIITI:StopPlace:49078",,"Pharmacie",,43.362061,-0.506326,"",,1,,,0,,
"MOBIITI:StopPlace:49073",,"Lot Merlou. RD 817 (2)",,43.359409,-0.501488,"",,1,,,0,,
"MOBIITI:StopPlace:49075",,"Place Jules Verne",,43.371059,-0.631498,"",,1,,,2,,
"MOBIITI:StopPlace:60528",,"Av. de Lattre de Tassigny (2)","",44.134808,0.343427,"",,1,,,0,,
"MOBIITI:StopPlace:58576",,"D'A - Pont de Pierre",,44.194706,0.606878,"",,1,,,0,,
"MOBIITI:StopPlace:49070",,"Canastel (2)",,43.365822,-0.626315,"",,1,,,0,,
"MOBIITI:StopPlace:49191",,"Fromagerie","",43.254189,-0.389610,"",,1,,,0,,
"MOBIITI:StopPlace:51702",,"ST PE DE BIG - Grottes",,43.102043,-0.187220,"",,1,,,0,,
"MOBIITI:StopPlace:49071",,"Piscine",,43.375278,-0.623315,"",,1,,,0,,
"MOBIITI:Quay:101481","15834_2","Fronton (2)","Fronton",43.364544,-0.582549,"",,0,"MOBIITI:StopPlace:49789",,2,,
"MOBIITI:Quay:101360","20528_2","MONASSUT - Cazadebat (2)","Cazadebat",43.409069,-0.204013,"",,0,"MOBIITI:StopPlace:49446",,2,,
"MOBIITI:Quay:101480","16904_2","Mairie (2)","Mairie",43.358398,-0.564089,"",,0,"MOBIITI:StopPlace:49790",,2,,
"MOBIITI:Quay:101489","28043_2","Labat Camy (2)","Labat Camy",43.308372,-0.447538,"",,0,"MOBIITI:StopPlace:49782",,2,,
"MOBIITI:Quay:101488","28045_2","Gare (2)","Gare",43.320660,-0.470698,"",,0,"MOBIITI:StopPlace:51912",,2,,
"MOBIITI:Quay:101367","16578_2","Lapassade (2)","Lapassade",43.227154,-0.142137,"",,0,"MOBIITI:StopPlace:49466",,2,,
"MOBIITI:Quay:101487","28050_2","Mairie (2)","Mairie",43.334923,-0.506984,"",,0,"MOBIITI:StopPlace:49787",,2,,
"MOBIITI:Quay:101366","20587_2","Les glycines (2)","Les glycines",43.268284,-0.194622,"",,0,"MOBIITI:StopPlace:49461",,2,,
"MOBIITI:Quay:101486","27721_2","Centre Commercial (2)","Centre Commercial",43.336372,-0.584807,"",,0,"MOBIITI:StopPlace:49791",,2,,
"MOBIITI:Quay:101365","17847_2","Quartier Sarcen (2)","Quartier Sarcan",43.273842,-0.214245,"",,0,"MOBIITI:StopPlace:49464",,2,,
"MOBIITI:Quay:101485","19166_2","Rte de Tarsacq (2)","Rte de Tarsacq",43.359241,-0.555367,"",,0,"MOBIITI:StopPlace:49788",,2,,
"MOBIITI:Quay:101364","17846_2","Mairie (2)","Mairie",43.266270,-0.188466,"",,0,"MOBIITI:StopPlace:49465",,2,,
"MOBIITI:Quay:101484","15696_2","Clos Bédat (2)","Clos Bédat",43.326889,-0.495137,"",,0,"MOBIITI:StopPlace:51916",,2,,
"MOBIITI:Quay:101363","29742_2","Marcadau (2)","Marcadau",43.311367,-0.355932,"",,0,"MOBIITI:StopPlace:49468",,2,,
"MOBIITI:Quay:101483","15695_2","Larribot (2)","Larribot",43.328663,-0.500991,"",,0,"MOBIITI:StopPlace:51913",,2,,
"MOBIITI:Quay:101362","29741_2","Cité Administrative (2)","Cité Administrative",43.311092,-0.362986,"",,0,"MOBIITI:StopPlace:49467",,2,,
"MOBIITI:Quay:101482","28036","Mairie","",43.286953,-0.390026,"",,0,"MOBIITI:StopPlace:69239",,2,,
"MOBIITI:Quay:101361","27752_2","Mairie (2)","Mairie",43.214375,-0.128909,"",,0,"MOBIITI:StopPlace:49462",,2,,
"MOBIITI:Quay:74199","30114","CANFRANC  ESPAGNE - Gare SNCF","Gare SNCF",42.751541,-0.515255,"",,0,"MOBIITI:StopPlace:49636",,2,,
"MOBIITI:Quay:101369","17220_2","Eglise (2)","Eglise",43.242340,-0.165916,"",,0,"MOBIITI:StopPlace:49469",,2,,
"MOBIITI:Quay:101470","FR:64300:ZE:227777:RNA","LACQ - Pole d' Etudes et de Recherches",,43.417213,-0.636220,"",,0,"MOBIITI:StopPlace:69227",,2,,
"MOBIITI:Quay:101478","27938_2","Mairie (2)","Mairie",43.301846,-0.395573,"",,0,"MOBIITI:StopPlace:50038",,2,,
"MOBIITI:Quay:101357","17644_2","Berlanne Cachalat (2)","Berlanne Cachalat",43.329056,-0.286385,"",,0,"MOBIITI:StopPlace:49976",,2,,
"MOBIITI:Quay:101477","27968_1_2","Mairie/Ecole (2)","Mairie/Ecole",43.468418,-0.713433,"",,0,"MOBIITI:StopPlace:69225",,2,,
"MOBIITI:Quay:101356","16529_2","ST LT BRETAGNE - Qu. Bretagne (2)","Qu. Bretagne",43.384998,-0.220362,"",,0,"MOBIITI:StopPlace:49451",,2,,
"MOBIITI:Quay:101476","27966_2","La Poste/Ecole (2)","La Poste/Ecole",43.458614,-0.685852,"",,0,"MOBIITI:StopPlace:49730",,2,,
"MOBIITI:Quay:101355","17601_2","ST LT BRETAGNE - Bidau (2)","Bidau",43.395588,-0.210516,"",,0,"MOBIITI:StopPlace:49452",,2,,
"MOBIITI:Quay:101475","28553_2","Aranc Gouz Lendres - Gouze (2)","Gouze",43.444077,-0.672346,"",,0,"MOBIITI:StopPlace:49735",,2,,
"MOBIITI:Quay:101354","17603_2","Henri IV (2)","Henri IV",43.362045,-0.218734,"",,0,"MOBIITI:StopPlace:49454",,2,,
"MOBIITI:Quay:101474","28552_2","Mont Aran Gouz Lend- Arance Rd Pt (2)","Arance Rd Pt",43.419998,-0.644873,"",,0,"MOBIITI:StopPlace:49737",,2,,
"MOBIITI:Quay:101353","28085_2","Lot Labarrere (2)","Lot Labarrere",43.358635,-0.232173,"",,0,"MOBIITI:StopPlace:49448",,2,,
"MOBIITI:Quay:101473","FR:64300:ZE:227977:RNA","LACQ -Pole d'Etude et de Recherches (2)",,43.417099,-0.638458,"",,0,"MOBIITI:StopPlace:69227",,2,,
"MOBIITI:Quay:101352","28080_2","MONASSUT - Corps Franc Pommies (2)","Corps Franc Pommies",43.417774,-0.192292,"",,0,"MOBIITI:StopPlace:49447",,2,,
"MOBIITI:Quay:101472","28516_2","AUDEJOS - Panacau (2)","Panacau",43.406208,-0.598132,"",,0,"MOBIITI:StopPlace:49733",,2,,
"MOBIITI:Quay:101351","29606_2","Piscine (2)","Piscine",43.349361,-0.262675,"",,0,"MOBIITI:StopPlace:49994",,2,,
"MOBIITI:Quay:101471","28515_1_2","AUDEJOS - Lacq Mairie (2)","Lacq Mairie",43.412632,-0.617632,"",,0,"MOBIITI:StopPlace:49732",,2,,
"MOBIITI:Quay:101350","28653_2","MASPIE LALONQUERE JUILLACQ -Pouey (2)","Pouey",43.445621,-0.141068,"",,0,"MOBIITI:StopPlace:49457",,2,,
"MOBIITI:Quay:101359","13566_2","Auchan/Porte des Pyrénées (2)","Auchan/Porte des Pyr",43.306301,-0.334916,"",,0,"MOBIITI:StopPlace:51872",,2,,
"MOBIITI:Quay:101479","15779_2","Ancienne Gare (2)","Ancienne Gare",43.357189,-0.535570,"",,0,"MOBIITI:StopPlace:49794",,2,,
"MOBIITI:Quay:101358","17653_2","SAINT JAMMES - Mairie (2)","Mairie",43.359238,-0.244239,"",,0,"MOBIITI:StopPlace:49456",,2,,
"MOBIITI:Quay:74290","16315","HOPITAL ST B. - Bourg","Bourg",43.251919,-0.770174,"",,0,"MOBIITI:StopPlace:49727",,2,,
"MOBIITI:Quay:74291","29753","OLORON SAINTE MARIE -Salle Pallas","Salle Pallas",43.192616,-0.619499,"",,0,"MOBIITI:StopPlace:49728",,2,,
"MOBIITI:Quay:101346","54258_2","Poste (2)","Poste",44.044994,0.208594,"",,0,"MOBIITI:StopPlace:60580",,2,,
"MOBIITI:Quay:101467","20186_2","OLORON - Notre Dame (2)","Notre Dame",43.193497,-0.604048,"",,0,"MOBIITI:StopPlace:49721",,2,,
"MOBIITI:Quay:101345","54261_2","Av. 21 Avril 1944 (2)","Av. 21 Avril 1944",43.986225,0.008456,"",,0,"MOBIITI:StopPlace:60584",,2,,
"MOBIITI:Quay:101466","26508_2","Ec. Publique/Ikastola (2)","Ec.Publique/Ikastola",43.229057,-0.869508,"",,0,"MOBIITI:StopPlace:49722",,2,,
"MOBIITI:Quay:101344","54260_2","ST PE ST SIMON - D656/D144 (2)","D656/D144",44.028645,0.106735,"",,0,"MOBIITI:StopPlace:60586",,2,,
"MOBIITI:Quay:101465","18111_2","MAULEON SOULE - Gare (2)","Gare",43.225319,-0.888537,"",,0,"MOBIITI:StopPlace:63067",,2,,
"MOBIITI:Quay:101343","54256_2","Relais Gascogne (2)","Relais Gascogne",44.054684,0.260863,"",,0,"MOBIITI:StopPlace:60582",,2,,
"MOBIITI:Quay:101464","30227_2","OLORON SAINTE MARIE - Hôpital (2)","Hôpital",43.196877,-0.619007,"",,0,"MOBIITI:StopPlace:49716",,2,,
"MOBIITI:Quay:101342","54255_2","D656 (2)","D656",44.096336,0.281983,"",,0,"MOBIITI:StopPlace:60591",,2,,
"MOBIITI:Quay:101463","16315_2","HOPITAL ST B. - Bourg (2)","Bourg",43.252010,-0.770174,"",,0,"MOBIITI:StopPlace:49727",,2,,
"MOBIITI:Quay:101341","40001_2","Gare (2)","Gare d'Agen",44.208366,0.619559,"",,0,"MOBIITI:StopPlace:69098",,2,,
"MOBIITI:Quay:101462","20234","Eglise",,43.232433,-0.672261,"",,0,"MOBIITI:StopPlace:69219",,2,,
"MOBIITI:Quay:101340","51461_2","Bourg (2)","Bourg",44.042683,0.142367,"",,0,"MOBIITI:StopPlace:60574",,2,,
"MOBIITI:Quay:101461","29753_2","OLORON SAINTE MARIE -Salle Pallas (2)","Salle Pallas",43.192707,-0.619499,"",,0,"MOBIITI:StopPlace:49728",,2,,
"MOBIITI:Quay:101460","15447_2","Portarrieu (2)","Portarrieu",43.258614,-0.718485,"",,0,"MOBIITI:StopPlace:49724",,2,,
"MOBIITI:Quay:74298","28553","Aranc Gouz Lendres - Gouze","Gouze",43.443985,-0.672346,"",,0,"MOBIITI:StopPlace:49735",,2,,
"MOBIITI:Quay:74299","29762","Soarns","",43.480587,-0.748590,"",,0,"MOBIITI:StopPlace:49736",,2,,
"MOBIITI:Quay:74296","28516","AUDEJOS - Panacau","Panacau",43.406116,-0.598132,"",,0,"MOBIITI:StopPlace:49733",,2,,
"MOBIITI:Quay:74297","16637","Mairie",,43.396706,-0.572482,"",,0,"MOBIITI:StopPlace:49734",,2,,
"MOBIITI:Quay:74295","28515_1","AUDEJOS - Lacq Mairie","Lacq Mairie",43.412949,-0.619032,"",,0,"MOBIITI:StopPlace:49732",,2,,
"MOBIITI:Quay:101349","54267_2","Arènes (2)","Arènes",43.894417,-0.307082,"",,0,"MOBIITI:StopPlace:60576",,2,,
"MOBIITI:Quay:74292","27938","Mairie","",43.301754,-0.395573,"",,0,"MOBIITI:StopPlace:50038",,2,,
"MOBIITI:Quay:101469","28546_2","Aran Gouz Lendres - Mont (2)","Mont",43.431362,-0.657641,"",,0,"MOBIITI:StopPlace:49739",,2,,
"MOBIITI:Quay:101348","54266_2","Mairie (2)","Mairie",43.931847,-0.238823,"",,0,"MOBIITI:StopPlace:60588",,2,,
"MOBIITI:Quay:101468","27968_1","Mairie/Ecole",,43.468327,-0.713433,"",,0,"MOBIITI:StopPlace:69225",,2,,
"MOBIITI:Quay:74293","27966","La Poste/Ecole",,43.458549,-0.685744,"",,0,"MOBIITI:StopPlace:49730",,2,,
"MOBIITI:Quay:101347","30307_2","GUEYZE -Mairie (2)","Mairie",44.041862,0.132894,"",,0,"MOBIITI:StopPlace:60581",,2,,
"MOBIITI:Quay:74280","28379","Lot du pont du vert",,43.216743,-0.650180,"",,0,"MOBIITI:StopPlace:49717",,2,,
"MOBIITI:Quay:101335","30298_2","Jasmin Gambetta (2)","Jasmin Gambetta",44.203640,0.611760,"",,0,"MOBIITI:StopPlace:60522",,2,,
"MOBIITI:Quay:101456","26307_2","MAULEON SOULE-Lyc/Col St François (2)","Lyc/Col St François",43.223717,-0.884144,"",,0,"MOBIITI:StopPlace:49725",,2,,
"MOBIITI:Quay:101334","53480_2","D'A - Pont de Pierre (2)","Pont de Pierre",44.194790,0.606887,"",,0,"MOBIITI:StopPlace:58576",,2,,
"MOBIITI:Quay:101455","26308_2","Rond point Lycée (2)","Rond point Lycée",43.228088,-0.873205,"",,0,"MOBIITI:StopPlace:49726",,2,,
"MOBIITI:Quay:101333","53334_2","ROQUEFORT - Walibi (2)","Walibi",44.186771,0.580620,"",,0,"MOBIITI:StopPlace:58559",,2,,
"MOBIITI:Quay:101454","17976_2","Sereuilh (2)","Sereuilh",43.132690,-0.705591,"",,0,"MOBIITI:StopPlace:49714",,2,,
"MOBIITI:Quay:101332","30280_2","RD 11 (2)","RD 11",43.969307,-0.187940,"",,0,"MOBIITI:StopPlace:49375",,2,,
"MOBIITI:Quay:101453","17977_2","ANCE - Mairie (2)","Mairie",43.145382,-0.692097,"",,0,"MOBIITI:StopPlace:49712",,2,,
"MOBIITI:Quay:101331","30284_2","Gare (2)","Gare",43.885788,-0.309123,"",,0,"MOBIITI:StopPlace:49374",,2,,
"MOBIITI:Quay:101452","17978_2","FEAS - Place du village (2)","Place du village",43.155285,-0.687762,"",,0,"MOBIITI:StopPlace:49711",,2,,
"MOBIITI:Quay:101330","30282_2","Ecole (2)","Ecole",43.994678,-0.103009,"",,0,"MOBIITI:StopPlace:49372",,2,,
"MOBIITI:Quay:101451","20101_2","Ecole (2)","Ecole",43.096378,-0.716905,"",,0,"MOBIITI:StopPlace:49707",,2,,
"MOBIITI:Quay:74168","28464","Chemin du Moulin",,43.264427,-0.334309,"",,0,"MOBIITI:StopPlace:49605",,2,,
"MOBIITI:Quay:101450","20116_2","Guirail (2)","Guirail",43.122601,-0.726769,"",,0,"MOBIITI:StopPlace:49706",,2,,
"MOBIITI:Quay:74289","26308","Rond point Lycée","",43.227997,-0.873205,"",,0,"MOBIITI:StopPlace:49726",,2,,
"MOBIITI:Quay:74169","28467","Lot du Bedat",,43.245174,-0.311894,"",,0,"MOBIITI:StopPlace:49606",,2,,
"MOBIITI:Quay:74166","28465","Las Caires","",43.263947,-0.333596,"",,0,"MOBIITI:StopPlace:49603",,2,,
"MOBIITI:Quay:74287","15447","Portarrieu",,43.258522,-0.718485,"",,0,"MOBIITI:StopPlace:49724",,2,,
"MOBIITI:Quay:74167","28466","Cimetière","",43.257912,-0.326908,"",,0,"MOBIITI:StopPlace:49604",,2,,
"MOBIITI:Quay:74288","26307","MAULEON SOULE-Lyc/Col St François","Lyc/Col St François",43.223625,-0.884144,"",,0,"MOBIITI:StopPlace:49725",,2,,
"MOBIITI:Quay:74164","19536","Collège",,43.158016,-0.231047,"",,0,"MOBIITI:StopPlace:49601",,2,,
"MOBIITI:Quay:74285","26508","Ec. Publique/Ikastola","Ec.Publique/Ikastola",43.229107,-0.869578,"",,0,"MOBIITI:StopPlace:49722",,2,,
"MOBIITI:Quay:74165","19537","Eglise",,43.169170,-0.231597,"",,0,"MOBIITI:StopPlace:49602",,2,,
"MOBIITI:Quay:74286","15560","GEUS D OLORON - Rond Pt de Geüs","Rond Pt de Geüs",43.256035,-0.709213,"",,0,"MOBIITI:StopPlace:49723",,2,,
"MOBIITI:Quay:101339","30296_2","Ste Foy (2)","Ste Foy",44.207096,0.615272,"",,0,"MOBIITI:StopPlace:60583",,2,,
"MOBIITI:Quay:74162","28410","Lot St Claude",,43.254513,-0.323998,"",,0,"MOBIITI:StopPlace:49599",,2,,
"MOBIITI:Quay:74283","19021","SAINT GOIN - Village","Village",43.246964,-0.701049,"",,0,"MOBIITI:StopPlace:49720",,2,,
"MOBIITI:Quay:101338","30297_2","Lamennais (2)","Lamennais",44.206524,0.613192,"",,0,"MOBIITI:StopPlace:58691",,2,,
"MOBIITI:Quay:74163","28008","Carrefour Plantier",,43.200226,-0.285806,"",,0,"MOBIITI:StopPlace:49600",,2,,
"MOBIITI:Quay:74284","20186","OLORON - Notre Dame","Notre Dame",43.193405,-0.604048,"",,0,"MOBIITI:StopPlace:49721",,2,,
"MOBIITI:Quay:101459","20234_2","Eglise (2)","Eglise",43.232525,-0.672261,"",,0,"MOBIITI:StopPlace:69219",,2,,
"MOBIITI:Quay:101337","40253_2","Av. de Lattre de Tassigny (2)","Av. de Tassigny",44.134853,0.343427,"",,0,"MOBIITI:StopPlace:60528",,2,,
"MOBIITI:Quay:74160","16687","Eglise",,43.260239,-0.329332,"",,0,"MOBIITI:StopPlace:49597",,2,,
"MOBIITI:Quay:101458","19019_2","Place mairie/Ecole (2)","Place mairie/Ecole",43.240063,-0.690380,"",,0,"MOBIITI:StopPlace:49719",,2,,
"MOBIITI:Quay:101336","40252_2","Place de l'horloge (2)","Place de l'horloge",44.135002,0.339350,"",,0,"MOBIITI:StopPlace:60533",,2,,
"MOBIITI:Quay:74161","28408","Lot St Roch",,43.187454,-0.262238,"",,0,"MOBIITI:StopPlace:49598",,2,,
"MOBIITI:Quay:74282","19019","Place mairie/Ecole",,43.239971,-0.690380,"",,0,"MOBIITI:StopPlace:49719",,2,,
"MOBIITI:Quay:101457","19021_2","SAINT GOIN - Village (2)","Village",43.246819,-0.700652,"",,0,"MOBIITI:StopPlace:49720",,2,,
"MOBIITI:Quay:101283","15613_2","Marcadieu (2)","Marcadieu",43.517498,-0.918057,"",,0,"MOBIITI:StopPlace:49143",,2,,
"MOBIITI:Quay:101282","27499_2","Casino (2)","Casino",43.473133,-0.929548,"",,0,"MOBIITI:StopPlace:49148",,2,,
"MOBIITI:Quay:101281","18008_2","SAUVETERRE - Gare SNCF (2)","Gare SNCF",43.390881,-0.943047,"",,0,"MOBIITI:StopPlace:49130",,2,,
"MOBIITI:Quay:101280","20039_2","Centre Commercial (2)","Centre Commercial",43.489422,-0.799289,"",,0,"MOBIITI:StopPlace:49138",,2,,
"MOBIITI:Quay:101289","28417_2","Pont de Béon (2)","Pont de Béon",43.037109,-0.423679,"",,0,"MOBIITI:StopPlace:49263",,2,,
"MOBIITI:Quay:101288","16542_2","Cave (2)","Cave",43.237640,-0.389808,"",,0,"MOBIITI:StopPlace:49258",,2,,
"MOBIITI:Quay:74159","15597","Lotissement Petit",,43.122375,-0.196473,"",,0,"MOBIITI:StopPlace:49596",,2,,
"MOBIITI:Quay:101286","28646_2","Maison Familiale (2)","Maison Familiale",43.086361,-0.422574,"",,0,"MOBIITI:StopPlace:49257",,2,,
"MOBIITI:Quay:101285","17669_2","Poste (2)","Poste",43.055000,-0.431379,"",,0,"MOBIITI:StopPlace:49261",,2,,
"MOBIITI:Quay:74157","16684","Pont de Baliros",,43.229389,-0.307595,"",,0,"MOBIITI:StopPlace:49594",,2,,
"MOBIITI:Quay:74278","18111","MAULEON SOULE - Gare","Gare",43.225227,-0.888537,"",,0,"MOBIITI:StopPlace:63067",,2,,
"MOBIITI:Quay:101284","15850_2","Ecole (2)","Ecole",43.512867,-0.839532,"",,0,"MOBIITI:StopPlace:49141",,2,,
"MOBIITI:Quay:74158","16689","lezons 2000",,43.278233,-0.353589,"",,0,"MOBIITI:StopPlace:49595",,2,,
"MOBIITI:Quay:74279","30227","OLORON SAINTE MARIE - Hôpital","Hôpital",43.196785,-0.619007,"",,0,"MOBIITI:StopPlace:49716",,2,,
"MOBIITI:Quay:74034","18536","Place Huningue",,43.185734,-0.114677,"",,0,"MOBIITI:StopPlace:49471",,2,,
"MOBIITI:Quay:74155","15372","LESTELLE BETHARAM - Collège","Collège",43.122814,-0.206809,"",,0,"MOBIITI:StopPlace:49592",,2,,
"MOBIITI:Quay:74276","27670","La Pierre St M. Station","La Pierre St M. Stat",42.979675,-0.746157,"",,0,"MOBIITI:StopPlace:49713",,2,,
"MOBIITI:Quay:74156","16677","Village",,43.195545,-0.273917,"",,0,"MOBIITI:StopPlace:49593",,2,,
"MOBIITI:Quay:74277","17976","Sereuilh",,43.132599,-0.705591,"",,0,"MOBIITI:StopPlace:49714",,2,,
"MOBIITI:Quay:74032","17220","Eglise",,43.242249,-0.165916,"",,0,"MOBIITI:StopPlace:49469",,2,,
"MOBIITI:Quay:74153","27516","Salle Polyvalente",,43.126961,-0.199508,"",,0,"MOBIITI:StopPlace:49590",,2,,
"MOBIITI:Quay:74274","17978","FEAS - Place du village","Place du village",43.155193,-0.687762,"",,0,"MOBIITI:StopPlace:49711",,2,,
"MOBIITI:Quay:74033","17218","Mairie","",43.245468,-0.168763,"",,0,"MOBIITI:StopPlace:49470",,2,,
"MOBIITI:Quay:74154","27403","Suberlanne",,43.135410,-0.213947,"",,0,"MOBIITI:StopPlace:49591",,2,,
"MOBIITI:Quay:74275","17977","ANCE - Mairie","Mairie",43.145290,-0.692097,"",,0,"MOBIITI:StopPlace:49712",,2,,
"MOBIITI:Quay:74030","29741","Cité Administrative","",43.311001,-0.362986,"",,0,"MOBIITI:StopPlace:49467",,2,,
"MOBIITI:Quay:74151","16886","LESTELLE B.- Eglise","Eglise",43.129765,-0.208658,"",,0,"MOBIITI:StopPlace:49588",,2,,
"MOBIITI:Quay:74272","20168","OLORON - Supervielle/T.Derême","Supervielle/T.Derême",43.183514,-0.621540,"",,0,"MOBIITI:StopPlace:49709",,2,,
"MOBIITI:Quay:74031","29742","Marcadau",,43.311275,-0.355932,"",,0,"MOBIITI:StopPlace:49468",,2,,
"MOBIITI:Quay:74152","27514","Zone Commerciale",,43.174744,-0.235491,"",,0,"MOBIITI:StopPlace:49589",,2,,
"MOBIITI:Quay:74273","27669","La Pierre St M. le Braca","La Pierre St M. le B",42.984905,-0.742861,"",,0,"MOBIITI:StopPlace:49710",,2,,
"MOBIITI:Quay:74270","20101","Ecole",,43.096287,-0.716905,"",,0,"MOBIITI:StopPlace:49707",,2,,
"MOBIITI:Quay:74150","28010","SAINT ABIT - Eglise","Eglise",43.204765,-0.293851,"",,0,"MOBIITI:StopPlace:49587",,2,,
"MOBIITI:Quay:74271","30126","OLORON - Gare SNCF Départ","Gare SNCF Départ",43.194126,-0.611867,"",,0,"MOBIITI:StopPlace:49708",,2,,
"MOBIITI:Quay:101272","17199_2","Mairie (2)","Mairie",43.523369,-0.898071,"",,0,"MOBIITI:StopPlace:49133",,2,,
"MOBIITI:Quay:101393","27501_2","Saint Magne (2)","Saint Magne",43.288536,-0.353200,"",,0,"MOBIITI:StopPlace:49563",,2,,
"MOBIITI:Quay:101271","16743","Hôpital","Place d'Armes",43.486485,-0.771724,"",,0,"MOBIITI:StopPlace:69028",,2,,
"MOBIITI:Quay:101392","27505_2","Lot. de Ruchelle (2)","Lot. de Ruchelle",43.245819,-0.290226,"",,0,"MOBIITI:StopPlace:49529",,2,,
"MOBIITI:Quay:101270","27925_2","Lot Merlou. RD 817 (2)","Lot Merlou. RD 817",43.359455,-0.501488,"",,0,"MOBIITI:StopPlace:49073",,2,,
"MOBIITI:Quay:101391","27506_2","Cap vath (2)","Cap vath",43.240547,-0.286618,"",,0,"MOBIITI:StopPlace:49528",,2,,
"MOBIITI:Quay:101390","27507_2","Cap sus (2)","Cap sus",43.231319,-0.276936,"",,0,"MOBIITI:StopPlace:49531",,2,,
"MOBIITI:Quay:101279","29866_2","Osserain (2)","Osserain",43.376877,-0.949266,"",,0,"MOBIITI:StopPlace:49147",,2,,
"MOBIITI:Quay:101278","15365_2","Eglise (2)","Eglise",43.326801,-1.035116,"",,0,"MOBIITI:StopPlace:49145",,2,,
"MOBIITI:Quay:74029","16578","Lapassade",,43.227062,-0.142137,"",,0,"MOBIITI:StopPlace:49466",,2,,
"MOBIITI:Quay:101399","27516_2","Salle Polyvalente (2)","Salle Polyvalente",43.126877,-0.199175,"",,0,"MOBIITI:StopPlace:49590",,2,,
"MOBIITI:Quay:101277","30023_2","ST PALAIS - Hôpital (2)","Hôpital",43.326084,-1.024977,"",,0,"MOBIITI:StopPlace:62988",,2,,
"MOBIITI:Quay:101398","18003_1","Gare SNCF",,43.292362,-0.369855,"",,0,"MOBIITI:StopPlace:49250",,2,,
"MOBIITI:Quay:101276","17049_2","SALIES DE B - Place Bignot (2)","Place Bignot",43.469093,-0.927667,"",,0,"MOBIITI:StopPlace:49136",,2,,
"MOBIITI:Quay:74027","17847","Quartier Sarcen","Quartier Sarcan",43.273750,-0.214245,"",,0,"MOBIITI:StopPlace:49464",,2,,
"MOBIITI:Quay:101397","64191-801578A","Gare SNCF",,43.181900,-0.241650,"",,0,"MOBIITI:StopPlace:69154",,2,,
"MOBIITI:Quay:74148","28022","Mairie","",43.251022,-0.319643,"",,0,"MOBIITI:StopPlace:49585",,2,,
"MOBIITI:Quay:74269","20116","Guirail","",43.122509,-0.726769,"",,0,"MOBIITI:StopPlace:49706",,2,,
"MOBIITI:Quay:101275","17050_2","SALIES DE B - Le Golf (2)","Le Golf",43.475197,-0.913364,"",,0,"MOBIITI:StopPlace:49137",,2,,
"MOBIITI:Quay:74028","17846","Mairie",,43.266178,-0.188466,"",,0,"MOBIITI:StopPlace:49465",,2,,
"MOBIITI:Quay:101396","65286-801584A","Gare SNCF",,43.100445,-0.041991,"",,0,"MOBIITI:StopPlace:69153",,2,,
"MOBIITI:Quay:74149","28012","Mairie/Ecole",,43.213890,-0.299824,"",,0,"MOBIITI:StopPlace:49586",,2,,
"MOBIITI:Quay:101274","18157_2","SAUVETERRE - Place Royale (2)","Place Royale",43.400402,-0.938924,"",,0,"MOBIITI:StopPlace:49132",,2,,
"MOBIITI:Quay:74025","27752","Mairie","",43.214283,-0.128909,"",,0,"MOBIITI:StopPlace:49462",,2,,
"MOBIITI:Quay:101395","27993_2","Bert (2)","Bert",43.149399,-0.255710,"",,0,"MOBIITI:StopPlace:49533",,2,,
"MOBIITI:Quay:74146","28026","Mairie",,43.261726,-0.329947,"",,0,"MOBIITI:StopPlace:49583",,2,,
"MOBIITI:Quay:101273","26900_2","SALIES DE B - Lasbordes (2)","Lasbordes",43.444298,-0.928504,"",,0,"MOBIITI:StopPlace:49140",,2,,
"MOBIITI:Quay:74026","13574","Stade Lemoine",,43.194359,-0.119475,"",,0,"MOBIITI:StopPlace:49463",,2,,
"MOBIITI:Quay:101394","27509_2","Lot. les Ht. du Gave (2)","Lot. les Ht. du Gave",43.198502,-0.254853,"",,0,"MOBIITI:StopPlace:49532",,2,,
"MOBIITI:Quay:74147","28028","Eglise",,43.270519,-0.343287,"",,0,"MOBIITI:StopPlace:49584",,2,,
"MOBIITI:Quay:74023","17203","Foyer Rural","",43.525459,-0.088863,"",,0,"MOBIITI:StopPlace:49460",,2,,
"MOBIITI:Quay:74024","20587","Les glycines",,43.268192,-0.194622,"",,0,"MOBIITI:StopPlace:49461",,2,,
"MOBIITI:Quay:74145","16181","Izarce","",43.153633,-0.226603,"",,0,"MOBIITI:StopPlace:49582",,2,,
"MOBIITI:Quay:74021","17582","Place","",43.448879,-0.112363,"",,0,"MOBIITI:StopPlace:49458",,2,,
"MOBIITI:Quay:74022","17598","Bourg",,43.441856,-0.166705,"",,0,"MOBIITI:StopPlace:49459",,2,,
"MOBIITI:Quay:74020","28653","MASPIE LALONQUERE JUILLACQ -Pouey","Pouey",43.445087,-0.142731,"",,0,"MOBIITI:StopPlace:49457",,2,,
"MOBIITI:Quay:101261","18284_2","Canastel (2)","Canastel",43.365868,-0.626315,"",,0,"MOBIITI:StopPlace:49070",,2,,
"MOBIITI:Quay:101382","16672_2","Vignau (2)","Vignau",43.252579,-0.295615,"",,0,"MOBIITI:StopPlace:49545",,2,,
"MOBIITI:Quay:101260","29750_2","Pau euralis (2)","Pau euralis",43.335014,-0.456472,"",,0,"MOBIITI:StopPlace:49082",,2,,
"MOBIITI:Quay:101381","16673_2","Eglise (2)","Eglise",43.235630,-0.281959,"",,0,"MOBIITI:StopPlace:49544",,2,,
"MOBIITI:Quay:101380","16674_2","Centre (2)","Centre",43.221581,-0.266615,"",,0,"MOBIITI:StopPlace:49543",,2,,
"MOBIITI:Quay:101269","27927_2","ZA RD 817 (2)","ZA RD 817",43.346653,-0.477868,"",,0,"MOBIITI:StopPlace:49934",,2,,
"MOBIITI:Quay:101268","27929_2","Le Laou (2)","Le Laou",43.326218,-0.440367,"",,0,"MOBIITI:StopPlace:49302",,2,,
"MOBIITI:Quay:101389","27508_2","Cami de Nay (2)","Cami de Nay",43.216988,-0.264293,"",,0,"MOBIITI:StopPlace:49530",,2,,
"MOBIITI:Quay:101267","30334_2","Santos Dumont (2)","Santos Dumont",43.319798,-0.423822,"",,0,"MOBIITI:StopPlace:49412",,2,,
"MOBIITI:Quay:74018","17644","Berlanne Cachalat","",43.328964,-0.286385,"",,0,"MOBIITI:StopPlace:49976",,2,,
"MOBIITI:Quay:101388","27019_2","Lycée (2)","Lycée",43.204922,-0.257376,"",,0,"MOBIITI:StopPlace:49554",,2,,
"MOBIITI:Quay:101266","30335_2","Mediatheque (2)","Mediatheque",43.320858,-0.391864,"",,0,"MOBIITI:StopPlace:49408",,2,,
"MOBIITI:Quay:74019","17653","SAINT JAMMES - Mairie","Mairie",43.359146,-0.244239,"",,0,"MOBIITI:StopPlace:49456",,2,,
"MOBIITI:Quay:101387","29754_2","Bonaparte/Gare SNCF (2)","Bonaparte/Gare SNCF",43.292362,-0.368950,"",,0,"MOBIITI:StopPlace:49550",,2,,
"MOBIITI:Quay:101265","17310_2","LABASTIDE CEZ. - Labast Céz RD817 (2)","RN 117",43.378700,-0.536870,"",,0,"MOBIITI:StopPlace:49080",,2,,
"MOBIITI:Quay:74016","18700","Ecole","",43.499969,-0.111575,"",,0,"MOBIITI:StopPlace:49453",,2,,
"MOBIITI:Quay:101386","15232_2","Pl. des Platanes (2)","Pl. des Platanes",43.228214,-0.273500,"",,0,"MOBIITI:StopPlace:49551",,2,,
"MOBIITI:Quay:101264","28439_2","Soleil (2)","Lescar Soleil",43.320244,-0.433831,"",,0,"MOBIITI:StopPlace:64997",,2,,
"MOBIITI:Quay:74017","17603","Henri IV","",43.362064,-0.218724,"",,0,"MOBIITI:StopPlace:49454",,2,,
"MOBIITI:Quay:101385","16676_2","Mairie (2)","Mairie",43.189034,-0.250046,"",,0,"MOBIITI:StopPlace:49548",,2,,
"MOBIITI:Quay:101263","29751_2","Gare SNCF (2)","Gare SNCF",43.393353,-0.569662,"",,0,"MOBIITI:StopPlace:71968",,2,,
"MOBIITI:Quay:74014","16529","ST LT BRETAGNE - Qu. Bretagne","Qu. Bretagne",43.384907,-0.220362,"",,0,"MOBIITI:StopPlace:49451",,2,,
"MOBIITI:Quay:101384","28618_2","Matachot (2)","Matachot",43.281143,-0.333041,"",,0,"MOBIITI:StopPlace:49540",,2,,
"MOBIITI:Quay:101262","28300_2","Université (2)","Université",43.311420,-0.364827,"",,0,"MOBIITI:StopPlace:49081",,2,,
"MOBIITI:Quay:74015","17601","ST LT BRETAGNE - Bidau","Bidau",43.395496,-0.210516,"",,0,"MOBIITI:StopPlace:49452",,2,,
"MOBIITI:Quay:101383","16671_2","Centre (2)","Centre",43.264240,-0.311018,"",,0,"MOBIITI:StopPlace:49964",,2,,
"MOBIITI:Quay:74012","13566","Auchan/Porte des Pyrénées","Auchan/Porte des Pyr",43.306210,-0.334916,"",,0,"MOBIITI:StopPlace:51872",,2,,
"MOBIITI:Quay:74013","29606","Piscine","",43.349270,-0.262675,"",,0,"MOBIITI:StopPlace:49994",,2,,
"MOBIITI:Quay:74010","28080","MONASSUT - Corps Franc Pommies","Corps Franc Pommies",43.417683,-0.192292,"",,0,"MOBIITI:StopPlace:49447",,2,,
"MOBIITI:Quay:104895","18003_1_2","Gare SNCF (2)","Gare SNCF",43.292465,-0.369683,"",,0,"MOBIITI:StopPlace:72365",,2,,
"MOBIITI:Quay:74011","28085","Lot Labarrere",,43.358543,-0.232173,"",,0,"MOBIITI:StopPlace:49448",,2,,
"MOBIITI:Quay:104896","20258","Collège Gabard",,43.284519,-0.384786,"",,0,"MOBIITI:StopPlace:72366",,2,,
"MOBIITI:Quay:101371","27512_2","Quartier Justice (2)","Quartier Justice",43.181370,-0.252729,"",,0,"MOBIITI:StopPlace:49536",,2,,
"MOBIITI:Quay:101491","29354_2","Le Taillis (2)","Le Taillis",43.314610,-0.454800,"",,0,"MOBIITI:StopPlace:49785",,2,,
"MOBIITI:Quay:101370","17218_2","Mairie (2)","Mairie",43.245560,-0.168763,"",,0,"MOBIITI:StopPlace:49470",,2,,
"MOBIITI:Quay:101490","28041_2","Centre Bourg (2)","Centre Bourg",43.305061,-0.443503,"",,0,"MOBIITI:StopPlace:49783",,2,,
"MOBIITI:Quay:101258","16635_2","Pharmacie (2)","Pharmacie",43.362106,-0.506326,"",,0,"MOBIITI:StopPlace:49078",,2,,
"MOBIITI:Quay:74009","20528","MONASSUT - Cazadebat","Cazadebat",43.408978,-0.204013,"",,0,"MOBIITI:StopPlace:49446",,2,,
"MOBIITI:Quay:101379","29736_2","Mairie (2)","Mairie",43.289879,-0.355335,"",,0,"MOBIITI:StopPlace:49905",,2,,
"MOBIITI:Quay:101378","30163_2","Buisson (2)","Buisson",43.291973,-0.357830,"",,0,"MOBIITI:StopPlace:49525",,2,,
"MOBIITI:Quay:101377","30162_2","Lacoste (2)","Lacoste",43.292732,-0.362789,"",,0,"MOBIITI:StopPlace:49524",,2,,
"MOBIITI:Quay:101376","30165_2","Albert 1er (2)","Albert 1er",43.283264,-0.342916,"",,0,"MOBIITI:StopPlace:49960",,2,,
"MOBIITI:Quay:101375","16670_2","Clinique (2)","Clinique",43.279774,-0.326773,"",,0,"MOBIITI:StopPlace:49965",,2,,
"MOBIITI:Quay:101374","28532_2","Mairie (2)","Mairie de Bruges",43.126892,-0.303824,"",,0,"MOBIITI:StopPlace:49553",,2,,
"MOBIITI:Quay:101373","29815_2","Côte Saint Martin (2)","Côte Saint Martin",43.173553,-0.262848,"",,0,"MOBIITI:StopPlace:49541",,2,,
"MOBIITI:Quay:101372","27510_2","Cami Beilh (2)","Cami Beilh",43.194366,-0.253289,"",,0,"MOBIITI:StopPlace:49534",,2,,
"MOBIITI:Quay:101259","28062_2","Piscine (2)","Piscine",43.375324,-0.623315,"",,0,"MOBIITI:StopPlace:49071",,2,,
"MOBIITI:Quay:101401","16181_2","Izarce (2)","Izarce",43.153725,-0.226603,"",,0,"MOBIITI:StopPlace:49582",,2,,
"MOBIITI:Quay:101400","27514_2","Zone Commerciale (2)","Zone Commerciale",43.174744,-0.235491,"",,0,"MOBIITI:StopPlace:49589",,2,,
"MOBIITI:Quay:74117","27019","Lycée",,43.204830,-0.257376,"",,0,"MOBIITI:StopPlace:49554",,2,,
"MOBIITI:Quay:74357","15779","Ancienne Gare","",43.357098,-0.535570,"",,0,"MOBIITI:StopPlace:49794",,2,,
"MOBIITI:Quay:74115","29736","Mairie","",43.289787,-0.355335,"",,0,"MOBIITI:StopPlace:49905",,2,,
"MOBIITI:Quay:74116","28532","Mairie","Mairie de Bruges",43.126801,-0.303824,"",,0,"MOBIITI:StopPlace:49553",,2,,
"MOBIITI:Quay:74355","15695","Larribot","",43.328571,-0.500991,"",,0,"MOBIITI:StopPlace:51913",,2,,
"MOBIITI:Quay:74113","29754","Bonaparte/Gare SNCF","",43.292271,-0.368950,"",,0,"MOBIITI:StopPlace:49550",,2,,
"MOBIITI:Quay:74356","15696","Clos Bédat",,43.326797,-0.495137,"",,0,"MOBIITI:StopPlace:51916",,2,,
"MOBIITI:Quay:74114","15232","Pl. des Platanes",,43.228123,-0.273500,"",,0,"MOBIITI:StopPlace:49551",,2,,
"MOBIITI:Quay:74353","16904","Mairie","",43.358307,-0.564089,"",,0,"MOBIITI:StopPlace:49790",,2,,
"MOBIITI:Quay:74111","16676","Mairie","",43.188942,-0.250046,"",,0,"MOBIITI:StopPlace:49548",,2,,
"MOBIITI:Quay:101409","_2","ST PE DE BIG - Grottes (2)",,43.102089,-0.187220,"",,0,"MOBIITI:StopPlace:51702",,2,,
"MOBIITI:Quay:74354","27721","Centre Commercial",,43.336281,-0.584807,"",,0,"MOBIITI:StopPlace:49791",,2,,
"MOBIITI:Quay:74112","16670","Clinique","",43.279682,-0.326773,"",,0,"MOBIITI:StopPlace:49965",,2,,
"MOBIITI:Quay:101408","des","ST PE DE BIG. - Pl des Cloutiers","Cloutiers",43.103519,-0.161657,"",,0,"MOBIITI:StopPlace:69165",,2,,
"MOBIITI:Quay:74351","19166","Rte de Tarsacq","",43.359241,-0.555459,"",,0,"MOBIITI:StopPlace:49788",,2,,
"MOBIITI:Quay:101407","27562","ST PE DE BIG. - Place des Arcades","Place des Arcades",43.103668,-0.160383,"",,0,"MOBIITI:StopPlace:69164",,2,,
"MOBIITI:Quay:74352","15834","Fronton",,43.364559,-0.582587,"",,0,"MOBIITI:StopPlace:49789",,2,,
"MOBIITI:Quay:74110","16678","Amphithéâtre","Amphitéâtre",43.181080,-0.260642,"",,0,"MOBIITI:StopPlace:49547",,2,,
"MOBIITI:Quay:101406","19536_2","Collège (2)","Collège",43.158108,-0.231047,"",,0,"MOBIITI:StopPlace:49601",,2,,
"MOBIITI:Quay:101405","19537_2","Eglise (2)","Eglise",43.169262,-0.231597,"",,0,"MOBIITI:StopPlace:49602",,2,,
"MOBIITI:Quay:74350","28050","Mairie","",43.334831,-0.506984,"",,0,"MOBIITI:StopPlace:49787",,2,,
"MOBIITI:Quay:101404","28408_2","Lot St Roch (2)","Lot St Roch",43.187546,-0.262238,"",,0,"MOBIITI:StopPlace:49598",,2,,
"MOBIITI:Quay:101403","28410_2","Lot St Claude (2)","Lot St Claude",43.254604,-0.323998,"",,0,"MOBIITI:StopPlace:49599",,2,,
"MOBIITI:Quay:101402","17331","Place de l'église","",43.103722,-0.117679,"",,0,"MOBIITI:StopPlace:69159",,2,,
"MOBIITI:Quay:74108","16672","Vignau",,43.252487,-0.295615,"",,0,"MOBIITI:StopPlace:49545",,2,,
"MOBIITI:Quay:74109","16671","Centre","",43.264149,-0.311018,"",,0,"MOBIITI:StopPlace:49964",,2,,
"MOBIITI:Quay:74348","29354","Le Taillis",,43.314518,-0.454800,"",,0,"MOBIITI:StopPlace:49785",,2,,
"MOBIITI:Quay:74106","16674","Centre",,43.221489,-0.266615,"",,0,"MOBIITI:StopPlace:49543",,2,,
"MOBIITI:Quay:74349","20568","Collège","",43.320988,-0.575777,"",,0,"MOBIITI:StopPlace:49786",,2,,
"MOBIITI:Quay:74107","16673","Eglise",,43.235538,-0.281959,"",,0,"MOBIITI:StopPlace:49544",,2,,
"MOBIITI:Quay:74346","28041","Centre Bourg",,43.304970,-0.443503,"",,0,"MOBIITI:StopPlace:49783",,2,,
"MOBIITI:Quay:74104","29815","Côte Saint Martin",,43.173462,-0.262848,"",,0,"MOBIITI:StopPlace:49541",,2,,
"MOBIITI:Quay:74225","29889","Pont d'Esquit",,42.962852,-0.610052,"",,0,"MOBIITI:StopPlace:49662",,2,,
"MOBIITI:Quay:74226","17216","Eglise",,43.156311,-0.597023,"",,0,"MOBIITI:StopPlace:49663",,2,,
"MOBIITI:Quay:74344","28045","Gare",,43.320568,-0.470698,"",,0,"MOBIITI:StopPlace:51912",,2,,
"MOBIITI:Quay:74102","17911","Mairie","",43.142185,-0.257310,"",,0,"MOBIITI:StopPlace:49539",,2,,
"MOBIITI:Quay:74223","17544","OLORON - Gare SNCF Arrivée","Gare SNCF Arrivée",43.194126,-0.611867,"",,0,"MOBIITI:StopPlace:49660",,2,,
"MOBIITI:Quay:74345","28043","Labat Camy",,43.308281,-0.447538,"",,0,"MOBIITI:StopPlace:49782",,2,,
"MOBIITI:Quay:74103","28618","Matachot","",43.281052,-0.333041,"",,0,"MOBIITI:StopPlace:49540",,2,,
"MOBIITI:Quay:74224","17437","Bourg",,43.050049,-0.601234,"",,0,"MOBIITI:StopPlace:49661",,2,,
"MOBIITI:Quay:74100","27502","Clos du Béarn","",43.269600,-0.316801,"",,0,"MOBIITI:StopPlace:49952",,2,,
"MOBIITI:Quay:74101","27501","Saint Magne","",43.288536,-0.353200,"",,0,"MOBIITI:StopPlace:49563",,2,,
"MOBIITI:Quay:74222","16877","Eglise/Ecole",,42.912308,-0.570785,"",,0,"MOBIITI:StopPlace:49659",,2,,
"MOBIITI:Quay:74220","17721","Bourg d'Asasp/poste",,43.122082,-0.613595,"",,0,"MOBIITI:StopPlace:49657",,2,,
"MOBIITI:Quay:74209","30063","Somport Ski de fond",,42.796246,-0.531767,"",,0,"MOBIITI:StopPlace:49646",,2,,
"MOBIITI:Quay:74218","28759","Pont de Lescun",,42.946938,-0.611485,"",,0,"MOBIITI:StopPlace:49655",,2,,
"MOBIITI:Quay:74219","28756","fronton d'Eygun",,42.936142,-0.589534,"",,0,"MOBIITI:StopPlace:49656",,2,,
"MOBIITI:Quay:74216","30058","Pont",,43.072186,-0.606599,"",,0,"MOBIITI:StopPlace:49653",,2,,
"MOBIITI:Quay:74217","30090","Leader Price",,43.180984,-0.607489,"",,0,"MOBIITI:StopPlace:49654",,2,,
"MOBIITI:Quay:74214","30059","Gare","",42.995712,-0.603314,"",,0,"MOBIITI:StopPlace:49651",,2,,
"MOBIITI:Quay:74215","30057","Salle Polyvalente",,43.173096,-0.604213,"",,0,"MOBIITI:StopPlace:49652",,2,,
"MOBIITI:Quay:74212","30060","Suberlaché",,42.985764,-0.604492,"",,0,"MOBIITI:StopPlace:49649",,2,,
"MOBIITI:Quay:74213","30061","Pont",,43.034283,-0.605957,"",,0,"MOBIITI:StopPlace:49650",,2,,
"MOBIITI:Quay:74210","30064","Douane/Bourg",,42.871204,-0.554262,"",,0,"MOBIITI:StopPlace:49647",,2,,
"MOBIITI:Quay:95639","27768","Croix du Prince",,43.288128,-0.380163,"",,0,"MOBIITI:StopPlace:49209",,2,,
"MOBIITI:Quay:74207","30067","Forges D'Abel","",42.822296,-0.559127,"",,0,"MOBIITI:StopPlace:49644",,2,,
"MOBIITI:Quay:74208","30068","Gare/Camping","",42.881752,-0.559814,"",,0,"MOBIITI:StopPlace:49645",,2,,
"MOBIITI:Quay:74203","30087","Somport Douane","",42.795769,-0.525935,"",,0,"MOBIITI:StopPlace:49640",,2,,
"MOBIITI:Quay:74204","19282","Parking",,43.000481,-0.601087,"",,0,"MOBIITI:StopPlace:49641",,2,,
"MOBIITI:Quay:74201","30109","Foyer de Vie",,42.978092,-0.606589,"",,0,"MOBIITI:StopPlace:49638",,2,,
"MOBIITI:Quay:74202","19352","OLORON - Impôts LPA. St Joseph","Impôts LPA / St Jose",43.187073,-0.610028,"",,0,"MOBIITI:StopPlace:49639",,2,,
"MOBIITI:Quay:74200","30119","Gare",,42.941212,-0.603561,"",,0,"MOBIITI:StopPlace:49637",,2,,
"MOBIITI:Quay:101324","30115_2","Université  Allée Condorcet (2)","Université  Allée Co",43.318584,-0.360221,"",,0,"MOBIITI:StopPlace:49349",,2,,
"MOBIITI:Quay:101445","30119_2","Gare (2)","Gare",42.941303,-0.603561,"",,0,"MOBIITI:StopPlace:49637",,2,,
"MOBIITI:Quay:101323","20660_2","SAINT AGNET - Eglise (2)","Eglise",43.605865,-0.272525,"",,0,"MOBIITI:StopPlace:69085",,2,,
"MOBIITI:Quay:101444","17720_1","Eglise Arros",,43.145313,-0.601456,"",,0,"MOBIITI:StopPlace:69201",,2,,
"MOBIITI:Quay:101322","29382_2","Hôpital (2)","Hôpital",43.838371,-0.471745,"",,0,"MOBIITI:StopPlace:49355",,2,,
"MOBIITI:Quay:101443","30068_2","Gare/Camping (2)","Gare/Camping",42.881752,-0.559814,"",,0,"MOBIITI:StopPlace:49645",,2,,
"MOBIITI:Quay:101321","54201_2","Gare (2)","Gare",43.884876,-0.505771,"",,0,"MOBIITI:StopPlace:69065",,2,,
"MOBIITI:Quay:101442","30067_2","Forges D'Abel (2)","Forges D'Abel",42.822388,-0.559127,"",,0,"MOBIITI:StopPlace:49644",,2,,
"MOBIITI:Quay:101320","13627_2","RN 134 (2)","RN 134",43.629337,-0.271783,"",,0,"MOBIITI:StopPlace:49360",,2,,
"MOBIITI:Quay:101441","29889_2","Pont d'Esquit (2)","Pont d'Esquit",42.962944,-0.610052,"",,0,"MOBIITI:StopPlace:49662",,2,,
"MOBIITI:Quay:101440","30090_2","Leader Price (2)","Leader Price",43.181076,-0.607489,"",,0,"MOBIITI:StopPlace:49654",,2,,
"MOBIITI:Quay:101329","30283_2","Eglise (2)","GEIN -Eglise",43.835892,-0.301206,"",,0,"MOBIITI:StopPlace:49373",,2,,
"MOBIITI:Quay:101328","40247-008A","Eglise",,43.605770,-0.272850,"",,0,"MOBIITI:StopPlace:69085",,2,,
"MOBIITI:Quay:101449","27669_2","La Pierre St M. le Braca (2)","La Pierre St M. le B",42.984997,-0.742861,"",,0,"MOBIITI:StopPlace:49710",,2,,
"MOBIITI:Quay:101327","30302_2","AIRE SUR ADOUR -Place de la Liber (2)","Place de la Liber",43.704704,-0.259934,"",,0,"MOBIITI:StopPlace:49370",,2,,
"MOBIITI:Quay:101448","27670_2","La Pierre St M. Station (2)","La Pierre St M. Stat",42.979767,-0.746157,"",,0,"MOBIITI:StopPlace:49713",,2,,
"MOBIITI:Quay:101326","30301_2","Aéroport (2)","Aéroport",43.382214,-0.413308,"",,0,"MOBIITI:StopPlace:65002",,2,,
"MOBIITI:Quay:101447","30109_2","Foyer de Vie (2)","Foyer de Vie",42.978184,-0.606589,"",,0,"MOBIITI:StopPlace:49638",,2,,
"MOBIITI:Quay:101325","30116_2","Gare Parvis (2)","Gare Parvis",43.292019,-0.369344,"",,0,"MOBIITI:StopPlace:49350",,2,,
"MOBIITI:Quay:101446","30114_2","CANFRANC  ESPAGNE - Gare SNCF (2)","Gare SNCF",42.751633,-0.515255,"",,0,"MOBIITI:StopPlace:49636",,2,,
"MOBIITI:Quay:101313","30281_2","AIRE SUR ADOUR - Zone Commerciale (2)","Zone Commerciale",43.721642,-0.264147,"",,0,"MOBIITI:StopPlace:49353",,2,,
"MOBIITI:Quay:101434","30060_2","Suberlaché (2)","Suberlaché",42.985855,-0.604492,"",,0,"MOBIITI:StopPlace:49649",,2,,
"MOBIITI:Quay:73699","26900","SALIES DE B - Lasbordes","Lasbordes",43.444298,-0.928486,"",,0,"MOBIITI:StopPlace:49140",,2,,
"MOBIITI:Quay:101312","20478_2","Galabert  RN134 (2)","Galabert  RN134",43.399563,-0.371378,"",,0,"MOBIITI:StopPlace:49352",,2,,
"MOBIITI:Quay:101433","19282_2","Parking (2)","Parking",43.000572,-0.601087,"",,0,"MOBIITI:StopPlace:49641",,2,,
"MOBIITI:Quay:101311","30050_2","CAZERES SUR ADOUR - Place (2)","Place",43.761066,-0.317098,"",,0,"MOBIITI:StopPlace:49362",,2,,
"MOBIITI:Quay:101432","30058_2","Pont (2)","Pont",43.072277,-0.606599,"",,0,"MOBIITI:StopPlace:49653",,2,,
"MOBIITI:Quay:101310","27319_2","Carr. RN 134 (2)","Carrefour RN 134",43.418732,-0.349099,"",,0,"MOBIITI:StopPlace:49368",,2,,
"MOBIITI:Quay:101431","17720_1_2","Eglise Arros (2)","Eglise Arros",43.145405,-0.601456,"",,0,"MOBIITI:StopPlace:69201",,2,,
"MOBIITI:Quay:74302","28546","Aran Gouz Lendres - Mont","Mont",43.431465,-0.657935,"",,0,"MOBIITI:StopPlace:49739",,2,,
"MOBIITI:Quay:73696","17050","SALIES DE B - Le Golf","Le Golf",43.475105,-0.913364,"",,0,"MOBIITI:StopPlace:49137",,2,,
"MOBIITI:Quay:101430","17721_2","Bourg d'Asasp/poste (2)","Bourg d'Asasp/poste",43.122173,-0.613595,"",,0,"MOBIITI:StopPlace:49657",,2,,
"MOBIITI:Quay:73695","17049","SALIES DE B - Place Bignot","Place Bignot",43.469002,-0.927667,"",,0,"MOBIITI:StopPlace:49136",,2,,
"MOBIITI:Quay:73698","20014","Gare SNCF","",43.484463,-0.767559,"",,0,"MOBIITI:StopPlace:49139",,2,,
"MOBIITI:Quay:74300","28552","Mont Aran Gouz Lend- Arance Rd Pt","Arance Rd Pt",43.420055,-0.644701,"",,0,"MOBIITI:StopPlace:49737",,2,,
"MOBIITI:Quay:74301","29752","Pôle santé",,43.395618,-0.569501,"",,0,"MOBIITI:StopPlace:49738",,2,,
"MOBIITI:Quay:73697","20039","Centre Commercial",,43.489330,-0.799289,"",,0,"MOBIITI:StopPlace:49138",,2,,
"MOBIITI:Quay:73692","17199","Mairie",,43.523369,-0.898071,"",,0,"MOBIITI:StopPlace:49133",,2,,
"MOBIITI:Quay:73691","18157","SAUVETERRE - Place Royale","Place Royale",43.400311,-0.938924,"",,0,"MOBIITI:StopPlace:49132",,2,,
"MOBIITI:Quay:73694","30024","La Virginie","",43.489502,-0.816999,"",,0,"MOBIITI:StopPlace:49135",,2,,
"MOBIITI:Quay:101319","13628_2","AIRE SUR ADOUR - OfficeTourisme (2)","OfficeTourisme",43.702610,-0.261902,"",,0,"MOBIITI:StopPlace:49359",,2,,
"MOBIITI:Quay:73693","30023","ST PALAIS - Hôpital","Hôpital",43.325993,-1.024977,"",,0,"MOBIITI:StopPlace:62988",,2,,
"MOBIITI:Quay:101318","17773_2","Madaune (2)","Madaune",43.459435,-0.322574,"",,0,"MOBIITI:StopPlace:49367",,2,,
"MOBIITI:Quay:101439","30087_2","Somport Douane (2)","Somport Douane",42.795860,-0.525935,"",,0,"MOBIITI:StopPlace:49640",,2,,
"MOBIITI:Quay:101317","30051_2","Ecole (2)","Ecole",43.773697,-0.365578,"",,0,"MOBIITI:StopPlace:49361",,2,,
"MOBIITI:Quay:101438","30064_2","Douane/Bourg (2)","Douane/Bourg",42.871296,-0.554262,"",,0,"MOBIITI:StopPlace:49647",,2,,
"MOBIITI:Quay:101316","17782_2","RN 134 (2)","RN 134",43.484215,-0.326464,"",,0,"MOBIITI:StopPlace:49364",,2,,
"MOBIITI:Quay:101437","30063_2","Somport Ski de fond (2)","Somport Ski de fond",42.796337,-0.531767,"",,0,"MOBIITI:StopPlace:49646",,2,,
"MOBIITI:Quay:101315","20392_2","Route nationale 134 (2)","Route nationale 134",43.439968,-0.326160,"",,0,"MOBIITI:StopPlace:49358",,2,,
"MOBIITI:Quay:101436","17437_2","Bourg (2)","Bourg",43.050140,-0.601234,"",,0,"MOBIITI:StopPlace:49661",,2,,
"MOBIITI:Quay:101314","17781_2","CLARACQ - RN 134 (2)","RN 134",43.520260,-0.306872,"",,0,"MOBIITI:StopPlace:49365",,2,,
"MOBIITI:Quay:101435","30061_2","Pont (2)","Pont",43.034374,-0.605957,"",,0,"MOBIITI:StopPlace:49650",,2,,
"MOBIITI:Quay:73689","18008","SAUVETERRE - Gare SNCF","Gare SNCF",43.390789,-0.943047,"",,0,"MOBIITI:StopPlace:49130",,2,,
"MOBIITI:Quay:101423","28466_2","Cimetière (2)","Cimetière",43.258003,-0.326908,"",,0,"MOBIITI:StopPlace:49604",,2,,
"MOBIITI:Quay:101422","28465_2","Las Caires (2)","Las Caires",43.264038,-0.333596,"",,0,"MOBIITI:StopPlace:49603",,2,,
"MOBIITI:Quay:101300","28109_2","Bourg Belesten (2)","Bourg Belesten",43.031673,-0.422793,"",,0,"MOBIITI:StopPlace:49266",,2,,
"MOBIITI:Quay:101421","28464_2","Chemin du Moulin (2)","Chemin du Moulin",43.264519,-0.334309,"",,0,"MOBIITI:StopPlace:49605",,2,,
"MOBIITI:Quay:101420","28008_2","Carrefour Plantier (2)","Carrefour Plantier",43.200317,-0.285806,"",,0,"MOBIITI:StopPlace:49600",,2,,
"MOBIITI:Quay:101309","30049_2","AIRE SUR ADOUR - Av des Pyrénées (2)","Av des Pyrénées",43.690716,-0.273529,"",,0,"MOBIITI:StopPlace:49363",,2,,
"MOBIITI:Quay:101308","FR:40192:ZE:207107:RNA","MT DE MARSAN - GARE SNCF",,43.885094,-0.504478,"",,0,"MOBIITI:StopPlace:69065",,2,,
"MOBIITI:Quay:101429","19352_2","OLORON - Impôts LPA. St Joseph (2)","Impôts LPA / St Jose",43.187164,-0.610028,"",,0,"MOBIITI:StopPlace:49639",,2,,
"MOBIITI:Quay:101307","29383_2","GRENADE SUR ADOUR - Centre place (2)","Centre place",43.773335,-0.431196,"",,0,"MOBIITI:StopPlace:49357",,2,,
"MOBIITI:Quay:101428","16877_2","Eglise/Ecole (2)","Eglise/Ecole",42.912304,-0.570769,"",,0,"MOBIITI:StopPlace:49659",,2,,
"MOBIITI:Quay:101306","29386_2","Cimetière (2)","Cimetière",43.592411,-0.273666,"",,0,"MOBIITI:StopPlace:49356",,2,,
"MOBIITI:Quay:101427","28756_2","fronton d'Eygun (2)","fronton d'Eygun",42.936234,-0.589534,"",,0,"MOBIITI:StopPlace:49656",,2,,
"MOBIITI:Quay:101305","802160","Université - Allée Condorcet","",43.315247,-0.361712,"",,0,"MOBIITI:StopPlace:69062",,2,,
"MOBIITI:Quay:101426","28759_2","Pont de Lescun (2)","Pont de Lescun",42.947029,-0.611485,"",,0,"MOBIITI:StopPlace:49655",,2,,
"MOBIITI:Quay:101425","30057_2","Salle Polyvalente (2)","Salle Polyvalente",43.173187,-0.604213,"",,0,"MOBIITI:StopPlace:49652",,2,,
"MOBIITI:Quay:101424","28467_2","Lot du Bedat (2)","Lot du Bedat",43.245266,-0.311894,"",,0,"MOBIITI:StopPlace:49606",,2,,
"MOBIITI:Quay:101412","16684_2","Pont de Baliros (2)","Pont de Baliros",43.229481,-0.307595,"",,0,"MOBIITI:StopPlace:49594",,2,,
"MOBIITI:Quay:101411","16886_2","LESTELLE B.- Eglise (2)","Eglise",43.129856,-0.208658,"",,0,"MOBIITI:StopPlace:49588",,2,,
"MOBIITI:Quay:101410","27403_2","Suberlanne (2)","Suberlanne",43.135502,-0.213947,"",,0,"MOBIITI:StopPlace:49591",,2,,
"MOBIITI:Quay:101419","28022_2","Mairie (2)","Mairie",43.251114,-0.319643,"",,0,"MOBIITI:StopPlace:49585",,2,,
"MOBIITI:Quay:101418","28010_2","SAINT ABIT - Eglise (2)","Eglise",43.204857,-0.293851,"",,0,"MOBIITI:StopPlace:49587",,2,,
"MOBIITI:Quay:101417","28012_2","Mairie/Ecole (2)","Mairie/Ecole",43.213982,-0.299824,"",,0,"MOBIITI:StopPlace:49586",,2,,
"MOBIITI:Quay:101416","28028_2","Eglise (2)","Eglise",43.270611,-0.343287,"",,0,"MOBIITI:StopPlace:49584",,2,,
"MOBIITI:Quay:101415","16677_2","Village (2)","Village",43.195637,-0.273917,"",,0,"MOBIITI:StopPlace:49593",,2,,
"MOBIITI:Quay:101414","15597_2","Lotissement Petit (2)","Lotissement Petit",43.122467,-0.196473,"",,0,"MOBIITI:StopPlace:49596",,2,,
"MOBIITI:Quay:101413","16689_2","lezons 2000 (2)","lezons 2000",43.278324,-0.353589,"",,0,"MOBIITI:StopPlace:49595",,2,,
"MOBIITI:Quay:73638","28439","Soleil","Lescar Soleil",43.320152,-0.433831,"",,0,"MOBIITI:StopPlace:64997",,2,,
"MOBIITI:Quay:73637","16635","Pharmacie",,43.362015,-0.506326,"",,0,"MOBIITI:StopPlace:49078",,2,,
"MOBIITI:Quay:73639","17310","LABASTIDE CEZ. - Labast Céz RD817","RN 117",43.378609,-0.536870,"",,0,"MOBIITI:StopPlace:49080",,2,,
"MOBIITI:Quay:73641","29750","Pau euralis",,43.334923,-0.456472,"",,0,"MOBIITI:StopPlace:49082",,2,,
"MOBIITI:Quay:73640","28300","Université",,43.311329,-0.364827,"",,0,"MOBIITI:StopPlace:49081",,2,,
"MOBIITI:Quay:73642","29751","Gare SNCF","",43.393261,-0.569662,"",,0,"MOBIITI:StopPlace:49083",,2,,
"MOBIITI:Quay:73627","30334","Santos Dumont","",43.319706,-0.423822,"",,0,"MOBIITI:StopPlace:49412",,2,,
"MOBIITI:Quay:73629","18284","Canastel",,43.365776,-0.626315,"",,0,"MOBIITI:StopPlace:49070",,2,,
"MOBIITI:Quay:73628","30335","Mediatheque","",43.320766,-0.391864,"",,0,"MOBIITI:StopPlace:49408",,2,,
"MOBIITI:Quay:73634","27916","Place Jules Verne",,43.371059,-0.631498,"",,0,"MOBIITI:StopPlace:49075",,2,,
"MOBIITI:Quay:73633","27927","ZA RD 817","",43.346561,-0.477868,"",,0,"MOBIITI:StopPlace:49934",,2,,
"MOBIITI:Quay:73636","29813","Centre Hospitalier",,43.326530,-0.347307,"",,0,"MOBIITI:StopPlace:50076",,2,,
"MOBIITI:Quay:73630","28062","Piscine",,43.375233,-0.623315,"",,0,"MOBIITI:StopPlace:49071",,2,,
"MOBIITI:Quay:73632","27925","Lot Merlou. RD 817",,43.359364,-0.501488,"",,0,"MOBIITI:StopPlace:49073",,2,,
"MOBIITI:Quay:73631","27929","Le Laou","",43.326126,-0.440367,"",,0,"MOBIITI:StopPlace:49302",,2,,
"MOBIITI:Quay:105072","28137_2","Bidau (2)","Bidau",43.230949,-0.388498,,,0,"MOBIITI:StopPlace:72547",,2,,
"MOBIITI:Quay:105071","28137","Bidau",,43.230858,-0.388498,,,0,"MOBIITI:StopPlace:72546",,2,,
"MOBIITI:Quay:77097","FR:65395:ZE:119525:RNA","ST PE DE BIG - Grottes",,43.101997,-0.187220,"",,0,"MOBIITI:StopPlace:51702",,2,,
"MOBIITI:Quay:106035","FR:64230:ZE:251622:RNA","Gan Brel 1",,43.222095,-0.387923,,,0,"MOBIITI:StopPlace:73135",,2,,
"MOBIITI:Quay:106036","FR:64230:ZE:251621:RNA","Gan Brel 2",,43.221905,-0.387735,,,0,"MOBIITI:StopPlace:73136",,2,,
"MOBIITI:Quay:73829","29789","Place de Verdun",,43.300320,-0.376065,"",,0,"MOBIITI:StopPlace:49270",,2,,
"MOBIITI:Quay:73707","27499","Casino",,43.473042,-0.929548,"",,0,"MOBIITI:StopPlace:49148",,2,,
"MOBIITI:Quay:73828","28105","Maison aux 5 sens",,42.988110,-0.425811,"",,0,"MOBIITI:StopPlace:49269",,2,,
"MOBIITI:Quay:73949","51461","Bourg","",44.042591,0.142367,"",,0,"MOBIITI:StopPlace:60574",,2,,
"MOBIITI:Quay:73704","15365","Eglise","",43.326710,-1.035116,"",,0,"MOBIITI:StopPlace:49145",,2,,
"MOBIITI:Quay:73825","28109","Bourg Belesten",,43.031582,-0.422793,"",,0,"MOBIITI:StopPlace:49266",,2,,
"MOBIITI:Quay:73947","54266","Mairie",,43.931755,-0.238823,"",,0,"MOBIITI:StopPlace:60588",,2,,
"MOBIITI:Quay:73703","28635","Gare SNCF","",43.525078,-0.910681,"",,0,"MOBIITI:StopPlace:49144",,2,,
"MOBIITI:Quay:73824","28128","GAN - Merce","",43.218731,-0.384010,"",,0,"MOBIITI:StopPlace:49265",,2,,
"MOBIITI:Quay:73948","54267","Arènes",,43.894325,-0.307082,"",,0,"MOBIITI:StopPlace:60576",,2,,
"MOBIITI:Quay:73706","29866","Osserain","",43.376785,-0.949266,"",,0,"MOBIITI:StopPlace:49147",,2,,
"MOBIITI:Quay:73827","28116","Castor",,43.102646,-0.419032,"",,0,"MOBIITI:StopPlace:49268",,2,,
"MOBIITI:Quay:73945","54255","D656","",44.096245,0.281983,"",,0,"MOBIITI:StopPlace:60591",,2,,
"MOBIITI:Quay:73705","16345","SAUVETERRE - Ec. St Joseph","Ec. St Joseph",43.399597,-0.943764,"",,0,"MOBIITI:StopPlace:49146",,2,,
"MOBIITI:Quay:73826","28118","Centre",,43.112900,-0.411810,"",,0,"MOBIITI:StopPlace:49267",,2,,
"MOBIITI:Quay:73946","54256","Relais Gascogne",,44.054592,0.260863,"",,0,"MOBIITI:StopPlace:60582",,2,,
"MOBIITI:Quay:73950","30307","GUEYZE -Mairie","Mairie",44.041771,0.132894,"",,0,"MOBIITI:StopPlace:60581",,2,,
"MOBIITI:Quay:96131","27529","Gare SNCF",,43.099991,-0.041866,"",,0,"MOBIITI:StopPlace:65274",,2,,
"MOBIITI:Quay:73818","17512","GAN - Mairie de Gan","",43.229515,-0.387260,"",,0,"MOBIITI:StopPlace:49247",,2,,
"MOBIITI:Quay:73817","16542","Cave","",43.237549,-0.389808,"",,0,"MOBIITI:StopPlace:49258",,2,,
"MOBIITI:Quay:73938","40001","Gare","Gare d'Agen",44.208275,0.619559,"",,0,"MOBIITI:StopPlace:49379",,2,,
"MOBIITI:Quay:73819","17668","Centre","",43.091358,-0.425929,"",,0,"MOBIITI:StopPlace:49260",,2,,
"MOBIITI:Quay:73939","30297","Lamennais","",44.206432,0.613192,"",,0,"MOBIITI:StopPlace:58691",,2,,
"MOBIITI:Quay:73814","27940","Rue Mathieu Lalanne","",43.297443,-0.364442,"",,0,"MOBIITI:StopPlace:49958",,2,,
"MOBIITI:Quay:73936","40253","Av. de Lattre de Tassigny","Av. de Tassigny",44.134762,0.343427,"",,0,"MOBIITI:StopPlace:60528",,2,,
"MOBIITI:Quay:73813","17163","Gourette Pkg faceNord","Gourette Pkg faceNor",42.959854,-0.333008,"",,0,"MOBIITI:StopPlace:49254",,2,,
"MOBIITI:Quay:73937","53334","ROQUEFORT - Walibi","Walibi",44.186680,0.580620,"",,0,"MOBIITI:StopPlace:58559",,2,,
"MOBIITI:Quay:73816","28646","Maison Familiale",,43.086269,-0.422574,"",,0,"MOBIITI:StopPlace:49257",,2,,
"MOBIITI:Quay:73934","30280","RD 11","",43.969215,-0.187940,"",,0,"MOBIITI:StopPlace:49375",,2,,
"MOBIITI:Quay:73815","15983","Monplaisir",,43.018723,-0.423124,"",,0,"MOBIITI:StopPlace:49256",,2,,
"MOBIITI:Quay:73935","40252","Place de l'horloge",,44.134911,0.339350,"",,0,"MOBIITI:StopPlace:60533",,2,,
"MOBIITI:Quay:73700","15850","Ecole",,43.512775,-0.839532,"",,0,"MOBIITI:StopPlace:49141",,2,,
"MOBIITI:Quay:73821","17548","Place de la Mairie","",43.160072,-0.396506,"",,0,"MOBIITI:StopPlace:49262",,2,,
"MOBIITI:Quay:73943","54261","Av. 21 Avril 1944","",43.986134,0.008456,"",,0,"MOBIITI:StopPlace:60584",,2,,
"MOBIITI:Quay:73820","17669","Poste","",43.054909,-0.431379,"",,0,"MOBIITI:StopPlace:49261",,2,,
"MOBIITI:Quay:73944","54258","Poste","",44.044903,0.208594,"",,0,"MOBIITI:StopPlace:60580",,2,,
"MOBIITI:Quay:73702","15613","Marcadieu","",43.517406,-0.918057,"",,0,"MOBIITI:StopPlace:49143",,2,,
"MOBIITI:Quay:73823","27447","Poste",,43.103359,-0.427501,"",,0,"MOBIITI:StopPlace:49264",,2,,
"MOBIITI:Quay:73941","30296","Ste Foy","",44.207005,0.615272,"",,0,"MOBIITI:StopPlace:60583",,2,,
"MOBIITI:Quay:73822","28417","Pont de Béon","",43.037018,-0.423679,"",,0,"MOBIITI:StopPlace:49263",,2,,
"MOBIITI:Quay:73942","54260","ST PE ST SIMON - D656/D144","D656/D144",44.028553,0.106735,"",,0,"MOBIITI:StopPlace:60586",,2,,
"MOBIITI:Quay:73940","30298","Jasmin Gambetta","",44.203548,0.611760,"",,0,"MOBIITI:StopPlace:60522",,2,,
"MOBIITI:Quay:73929","30302","AIRE SUR ADOUR -Place de la Liber","Place de la Liber",43.704613,-0.259934,"",,0,"MOBIITI:StopPlace:49370",,2,,
"MOBIITI:Quay:73809","18003","Gare SNCF","",43.292442,-0.370468,"",,0,"MOBIITI:StopPlace:49250",,2,,
"MOBIITI:Quay:73927","27319","Carr. RN 134","Carrefour RN 134",43.418640,-0.349099,"",,0,"MOBIITI:StopPlace:49368",,2,,
"MOBIITI:Quay:73928","30301","Aéroport","",43.382122,-0.413308,"",,0,"MOBIITI:StopPlace:65002",,2,,
"MOBIITI:Quay:73925","17780","Place Marcadieu",,43.559078,-0.274411,"",,0,"MOBIITI:StopPlace:49366",,2,,
"MOBIITI:Quay:73926","17773","Madaune",,43.459343,-0.322574,"",,0,"MOBIITI:StopPlace:49367",,2,,
"MOBIITI:Quay:73923","17782","RN 134",,43.484123,-0.326464,"",,0,"MOBIITI:StopPlace:49364",,2,,
"MOBIITI:Quay:73924","17781","Boueilh-Boueilho-Lasque - RN 134","RN 134",43.520168,-0.306872,"",,0,"MOBIITI:StopPlace:49365",,2,,
"MOBIITI:Quay:73810","28140","Fromagerie","",43.254337,-0.389654,"",,0,"MOBIITI:StopPlace:49191",,2,,
"MOBIITI:Quay:73932","30283","Eglise","GEIN -Eglise",43.835800,-0.301206,"",,0,"MOBIITI:StopPlace:49373",,2,,
"MOBIITI:Quay:73933","30284","Gare","",43.885696,-0.309123,"",,0,"MOBIITI:StopPlace:49374",,2,,
"MOBIITI:Quay:73812","18156","Place.Jardin Darralde","Place.Jardin Darrald",42.973133,-0.392686,"",,0,"MOBIITI:StopPlace:49253",,2,,
"MOBIITI:Quay:73930","53480","D'A - Pont de Pierre","Pont de Pierre",44.194698,0.606887,"",,0,"MOBIITI:StopPlace:58576",,2,,
"MOBIITI:Quay:73811","30329","JURANCON - Lafontaine","",43.284664,-0.387529,"",,0,"MOBIITI:StopPlace:49556",,2,,
"MOBIITI:Quay:73931","30282","Ecole",,43.994587,-0.103009,"",,0,"MOBIITI:StopPlace:49372",,2,,
"MOBIITI:Quay:73918","13628","AIRE SUR ADOUR - OfficeTourisme","OfficeTourisme",43.702518,-0.261902,"",,0,"MOBIITI:StopPlace:49359",,2,,
"MOBIITI:Quay:73919","13627","RN 134",,43.629246,-0.271783,"",,0,"MOBIITI:StopPlace:49360",,2,,
"MOBIITI:Quay:73916","29383","GRENADE SUR ADOUR - Centre place","Centre place",43.773243,-0.431196,"",,0,"MOBIITI:StopPlace:49357",,2,,
"MOBIITI:Quay:73917","20392","Route nationale 134",,43.439877,-0.326160,"",,0,"MOBIITI:StopPlace:49358",,2,,
"MOBIITI:Quay:73914","29382","Hôpital",,43.838280,-0.471745,"",,0,"MOBIITI:StopPlace:49355",,2,,
"MOBIITI:Quay:73915","29386","Cimetière","",43.592319,-0.273666,"",,0,"MOBIITI:StopPlace:49356",,2,,
"MOBIITI:Quay:73912","30281","AIRE SUR ADOUR - Zone Commerciale","Zone Commerciale",43.721550,-0.264147,"",,0,"MOBIITI:StopPlace:49353",,2,,
"MOBIITI:Quay:73913","54201","Gare","",43.884785,-0.505771,"",,0,"MOBIITI:StopPlace:49354",,2,,
"MOBIITI:Quay:73921","30050","CAZERES SUR ADOUR - Place","Place",43.760975,-0.317098,"",,0,"MOBIITI:StopPlace:49362",,2,,
"MOBIITI:Quay:73922","30049","AIRE SUR ADOUR - Av des Pyrénées","Av des Pyrénées",43.690624,-0.273529,"",,0,"MOBIITI:StopPlace:49363",,2,,
"MOBIITI:Quay:73920","30051","Ecole",,43.773605,-0.365578,"",,0,"MOBIITI:StopPlace:49361",,2,,
"MOBIITI:Quay:73909","30116","Gare Parvis","",43.291927,-0.369344,"",,0,"MOBIITI:StopPlace:49350",,2,,
"MOBIITI:Quay:101293","15983_2","Monplaisir (2)","Monplaisir",43.018814,-0.423124,"",,0,"MOBIITI:StopPlace:49256",,2,,
"MOBIITI:Quay:73908","30115","Université  Allée Condorcet","Université  Allée Co",43.318493,-0.360221,"",,0,"MOBIITI:StopPlace:49349",,2,,
"MOBIITI:Quay:101292","17668_2","Centre (2)","Centre",43.091450,-0.425929,"",,0,"MOBIITI:StopPlace:49260",,2,,
"MOBIITI:Quay:101291","17548_2","Place de la Mairie (2)","Place de la Mairie",43.160164,-0.396506,"",,0,"MOBIITI:StopPlace:49262",,2,,
"MOBIITI:Quay:101290","27447_2","Poste (2)","Poste",43.103451,-0.427501,"",,0,"MOBIITI:StopPlace:49264",,2,,
"MOBIITI:Quay:73910","20660","SAINT AGNET - Eglise","Eglise",43.605774,-0.272525,"",,0,"MOBIITI:StopPlace:69085",,2,,
"MOBIITI:Quay:73911","20478","Galabert  RN134",,43.399471,-0.371378,"",,0,"MOBIITI:StopPlace:49352",,2,,
"MOBIITI:Quay:101299","28105_2","Maison aux 5 sens (2)","Maison aux 5 sens",42.988201,-0.425811,"",,0,"MOBIITI:StopPlace:49269",,2,,
"MOBIITI:Quay:101298","28118_2","Centre (2)","Centre",43.112991,-0.411810,"",,0,"MOBIITI:StopPlace:49267",,2,,
"MOBIITI:Quay:101297","28140_2","Fromagerie (2)","Fromagerie",43.254429,-0.389654,"",,0,"MOBIITI:StopPlace:49191",,2,,
"MOBIITI:Quay:101296","28116_2","Castor (2)","Castor",43.102737,-0.419032,"",,0,"MOBIITI:StopPlace:49268",,2,,
"MOBIITI:Quay:74092","27505","Lot. de Ruchelle",,43.245728,-0.290226,"",,0,"MOBIITI:StopPlace:49529",,2,,
"MOBIITI:Quay:74093","27508","Cami de Nay",,43.216896,-0.264293,"",,0,"MOBIITI:StopPlace:49530",,2,,
"MOBIITI:Quay:74090","27503","Lot. Layus","",43.266640,-0.313584,"",,0,"MOBIITI:StopPlace:49962",,2,,
"MOBIITI:Quay:74091","27506","Cap vath",,43.240456,-0.286618,"",,0,"MOBIITI:StopPlace:49528",,2,,
"MOBIITI:Quay:74098","27513","Gare SNCF","",43.182079,-0.242235,"",,0,"MOBIITI:StopPlace:49535",,2,,
"MOBIITI:Quay:74099","27512","Quartier Justice",,43.181278,-0.252729,"",,0,"MOBIITI:StopPlace:49536",,2,,
"MOBIITI:Quay:74096","27993","Bert","",43.149307,-0.255710,"",,0,"MOBIITI:StopPlace:49533",,2,,
"MOBIITI:Quay:74097","27510","Cami Beilh",,43.194275,-0.253289,"",,0,"MOBIITI:StopPlace:49534",,2,,
"MOBIITI:Quay:74094","27507","Cap sus","",43.231228,-0.276936,"",,0,"MOBIITI:StopPlace:49531",,2,,
"MOBIITI:Quay:74095","27509","Lot. les Ht. du Gave",,43.198410,-0.254853,"",,0,"MOBIITI:StopPlace:49532",,2,,
"MOBIITI:Quay:74089","30165","Albert 1er","",43.283173,-0.342916,"",,0,"MOBIITI:StopPlace:49960",,2,,
"MOBIITI:Quay:74087","30162","Lacoste",,43.292641,-0.362789,"",,0,"MOBIITI:StopPlace:49524",,2,,
"MOBIITI:Quay:74088","30163","Buisson",,43.291882,-0.357830,"",,0,"MOBIITI:StopPlace:49525",,2,,
